StateAbr	LibID	LibName	Address	City	Zip	Zip4	County	Phone	WebAddr	PopLSA	TotStaff	TotInc	BookVol	Visits	TotCirc	GPTerms	PITUsr	Long	Lat	CountyPop	LocaleCode	CongDist
AK	AK0001	ANCHORPOINTPUBLICLIBRARY	72551MILOFRITZAVENUE	ANCHORPOINT	99556	129	KENAIPENINSULA	9072355692	appubliclibrary.com/	1829	0.75	16999	11765	7357	14430	4	2347	-151.853479	59.78047	53409	43	0
AK	AK0002	ANCHORAGEPUBLICLIBRARY	3600DENALISTREET	ANCHORAGE	99503	6055	ANCHORAGE	9073432975	www.anchoragelibrary.org/	284994	86	11412785	664162	840113	1532662	79	300674	-149.876714	61.18792	279243	11	0
AK	AK0003	ANDERSONVILLAGELIBRARY	101FIRSTSTREET	ANDERSON	99744	3078	DENALI	9075822628	-3	295	0.4	16393	16615	2028	2107	7	512	-149.178545	64.34357	1848	43	0
AK	AK0006	KUSKOKWIMCONSORTIUMLIBRARY	420STATEHIGHWAY	BETHEL	99559	368	BETHEL	9075434516	M	5665	3.5	278958	39822	17000	11783	5	8850	-161.760222	60.77014	17236	41	0
AK	AK0007	BIGLAKEPUBLICLIBRARY	3140SOUTHBIGLAKEROAD	BIGLAKE	99652	829	MATANUSKA-SUSITNA	9078926475	www.matsulibraries.org/biglake/	9679	3.75	264072	21222	32712	39831	7	10930	-149.819317	61.55251	85458	42	0
AK	AK0008	CANTWELLCOMMUNITYLIBRARY	1SCHOOLROAD	CANTWELL	99729	68	DENALI	9077682372	-3	192	0.76	18340	12367	1930	3880	4	750	-148.677951	63.44362	1848	43	0
AK	AK0011	CHINIAKPUBLICLIBRARY	43318SPRUCEWAY	CHINIAK	99615	5610	KODIAKISLAND	9074863022	-3	44	0	9350	2828	545	388	1	204	-152.491432	57.74737	13049	33	0
AK	AK0014	COLDBAYPUBLICLIBRARY	10BARANOVSTREET	COLDBAY	99571	87	ALEUTIANSEAST	9075322878	coldbayak.org/library.php/	90	0	8815	7135	1550	1714	3	340	-161.128461	55.7397	2810	43	0
AK	AK0015	COOPERLANDINGCOMMUNITYLIBRARY	MILE.8BEANCREEKROAD	COOPERLANDING	99572	517	KENAIPENINSULA	9075951241	www.arctic.net/~alibrary/	357	0	17756	3683	3484	2937	3	1005	-150.134689	60.49075	53409	43	0
AK	AK0016	CORDOVAPUBLICLIBRARY	622FIRSTSTREET	CORDOVA	99574	1210	VALDEZ-CORDOVA	9074246667	www.cordovalibrary.org/	2161	6.2	357648	21927	25607	15591	5	8384	-145.766016	60.54801	9362	43	0
AK	AK0017	CRAIGPUBLICLIBRARY	504THIRDSTREET	CRAIG	99921	1050	PRWALES-OUTERKE	9078263281	-3	1414	1.75	109613	12217	13108	20203	3	3590	-133.151451	55.47608	5533	43	0
AK	AK0019	DELTACOMMUNITYLIBRARY	2291DEBORAHSTREET	DELTAJUNCTION	99737	229	SEFAIRBANK	9078954102	www.deltalibrarylinks.org/	1058	2.38	158441	13212	42940	32684	7	17707	-145.713082	64.03256	6753	43	0
AK	AK0020	DILLINGHAMPUBLICLIBRARY	306DSTREETWEST	DILLINGHAM	99576	870	DILLINGHAM	9078425610	www.ci.dillingham.ak.us/	2347	1.88	104907	16913	14664	18860	6	5362	-158.466804	59.04026	4933	43	0
AK	AK0021	EAGLEPUBLICLIBRARY	2ND&AMUNDSEN	EAGLE	99738	45	SEFAIRBANK	9075472334	-3	129	0.91	17332	8604	3120	5565	3	984	-141.201813	64.78648	6753	43	0
AK	AK0022	ERNESTNYLINMEMORIALLIBRARY	50ELIMLOOP	ELIM	99739	50	NOME	9078903501	-3	280	0.16	5600	7516	460	151	3	350	-162.073651	64.75812	9261	43	0
AK	AK0023	FAIRBANKSNORTHSTARBOROUGHPUBLICLIBRARY	1215COWLESSTREET	FAIRBANKS	99701	4313	FAIRBANKSNORTHSTAR	9074591020	library.fnsb.lib.ak.us/	154228	51.25	5104527	299882	344723	598685	25	90019	-147.73849	64.83845	97970	13	0
AK	AK0025	CHARLESEVANSCOMMUNITY/SCHOOLLIBRARY	299ANTOSKIDRIVE	GALENA	99741	149	YUKON-KOYUKUK	9076562489	library.galenanet.org/	580	0.38	32344	10505	3100	5030	4	900	-154.720238	65.96966	5701	43	0
AK	AK0027	COPPERVALLEYCOMMUNITYLIBRARY	MILE186GLENNHIGHWAY	GLENNALLEN	99588	173	VALDEZ-CORDOVA	9078225427	M	454	0	35700	16773	12200	15920	4	1900	-146.369847	62.05552	9362	43	0
AK	AK0028	GUSTAVUSPUBLICLIBRARY	14GUSTAVUSROAD	GUSTAVUS	99826	279	SKAGWAY-ANGOON	9076972350	cms.gustavus-ak.gov/services/library	448	0.88	67025	11020	8239	4821	5	2261	-136.855874	58.83307	-1	43	0
AK	AK0029	HAINESBOROUGHPUBLICLIBRARY	111THIRDAVENUESOUTH	HAINES	99827	1089	HAINES	9077662545	www.haineslibrary.org/	2310	7.3	394707	37435	84260	106421	13	32500	-135.446889	59.2363	2271	43	0
AK	AK0030	TRI-VALLEYCOMMUNITYLIBRARY	400SUNTRANASTREET	HEALY	99743	518	DENALI	9076832507	www.dbsd.org/	1025	0.6	25850	24654	6404	18988	9	1545	-148.563331	64.014	1848	43	0
AK	AK0031	HOLLISPUBLICLIBRARY	NO.1HOLLISSCHOOLROAD	HOLLIS	99950	5	PRWALES-OUTERKE	9075307112	www.princeofwalesonline.com/hollis_library.html	172	0	10858	17200	1600	4550	3	1000	-132.878786	55.76289	5533	43	0
AK	AK0032	HOMERPUBLICLIBRARY	500HAZELAVENUE	HOMER	99603	7849	KENAIPENINSULA	9072353180	library.ci.homer.ak.us/	5390	6.9	629909	35931	133186	98815	19	40041	-151.544372	59.63993	53409	43	0
AK	AK0033	HOPEPUBLICLIBRARY	18487AAVENUE	HOPE	99605	127	KENAIPENINSULA	9077823121	-3	-3	-3	-3	-3	-3	-3	-3	-3	-149.636592	60.916201	53409	42	0
AK	AK0035	JUNEAUPUBLICLIBRARIES	292MARINEWAY	JUNEAU	99801	1361	JUNEAU	9075865324	www.juneau.org/library/	40138	20.4	2266500	118523	397401	219996	45	44871	-134.400041	58.29759	30988	33	0
AK	AK0037	KASILOFPUBLICLIBRARY	58200STERLINGHIGHWAY	KASILOF	99610	176	KENAIPENINSULA	9072524097	-3	560	0.25	12638	14622	3080	5422	1	210	-151.225689	60.3424	53409	43	0
AK	AK0038	KENAICOMMUNITYLIBRARY	163MAINSTREETLOOP	KENAI	99611	7723	KENAIPENINSULA	9072834378	www.kenailibrary.org/	7134	6	629849	78136	97802	115232	15	23110	-151.244012	60.55813	53409	33	0
AK	AK0039	KETCHIKANPUBLICLIBRARY	629DOCKSTREET	KETCHIKAN	99901	6589	KETCHIKANGATEWAY	9072253331	www.firstcitylibraries.org/	12993	12.3	1075208	59651	132940	160698	5	9809	-131.650775	55.34479	13142	33	0
AK	AK0040	A.HOLMESJOHNSONMEMORIALLIBRARY	319LOWERMILLBAYROAD	KODIAK	99615	7341	KODIAKISLAND	9074868688	www.city.kodiak.ak.us/library/	12972	7.5	713608	68894	149572	95667	10	51324	-152.398502	57.79393	13049	33	0
AK	AK0041	CHUKCHICONSORTIUMLIBRARY	604THIRDSTREET	KOTZEBUE	99752	297	NORTHWESTARCTIC	9074422410	www.chukchi.alaska.edu/users/zycclib/	3972	1.88	169034	13108	19100	8595	5	7408	-162.587444	66.89788	7502	33	0
AK	AK0044	MCGRATHCOMMUNITYSCHOOLLIBRARY	CHINANAAVENUE	MCGRATH	99627	249	YUKON-KOYUKUK	9075243843	-3	317	0.5	27767	12141	3056	1997	4	2240	-154.958831	62.94694	5701	43	0
AK	AK0046	CENTENNIALLIBRARY	4TH&MILTONSTREET	METLAKATLA	99926	7	PRWALES-OUTERKE	9078866015	-3	1318	0.57	51533	8978	1815	1891	2	712	-131.582243	55.13203	5533	43	0
AK	AK0047	MARTINMONSENREGIONALLIBRARY	101MAINSTREET	NAKNEK	99633	147	BRISTOLBAY	9072464465	M	1029	3	220891	15820	8644	6191	6	4854	-156.710141	58.84785	953	43	0
AK	AK0048	NENANAPUBLICLIBRARY	201EASTSECONDSTREET	NENANA	99760	40	YUKON-KOYUKUK	9078325812	nenanalibrary.com/	347	1	103343	8406	7940	7842	5	4160	-149.092702	64.56222	5701	43	0
AK	AK0051	NINILCHIKCOMMUNITYLIBRARY	15850STERLINGHIGHWAY	NINILCHIK	99639	165	KENAIPENINSULA	9075673333	-3	853	0.38	23902	12412	7161	16869	3	1912	-151.691726	60.0275	53409	43	0
AK	AK0052	KEGOAYAHKOZGALIBRARY	223FRONTSTREET	NOME	99762	1168	NOME	9074436628	M	3570	2.08	202702	16059	20000	6581	4	10296	-165.40543	64.49731	9261	33	0
AK	AK0053	NORTHWAYCOMMUNITY/SCHOOLLIBRARY	MILE5NORTHWAYROAD	NORTHWAY	99764	496	SEFAIRBANK	9077782287	-3	88	0.6	12350	2827	1000	1400	2	350	-141.945631	62.94483	6753	43	0
AK	AK0055	PALMERPUBLICLIBRARY	655SOUTHVALLEYWAY	PALMER	99645	6667	MATANUSKA-SUSITNA	9077454690	cityofpalmer.org/library/	26450	9.5	601728	54729	101577	128263	8	21801	-149.113741	61.59847	85458	32	0
AK	AK0056	PELICANPUBLICLIBRARY	166SALMONWAY	PELICAN	99832	712	SKAGWAY-ANGOON	9077352500	-3	113	0.4	22690	10304	4397	9798	2	1268	-136.135508	58.10796	-1	43	0
AK	AK0057	PETERSBURGPUBLICLIBRARY	12SOUTHNORDICDRIVE	PETERSBURG	99833	549	WRANGELL-PETERSBU	9077723349	www.psglib.org/	3036	3.2	288062	27058	50622	73995	3	8703	-132.958255	56.80848	5910	33	0
AK	AK0058	JESSIEWAKEFIELDMEMORIALLIBRARY	207SPRUCEDRIVE	PORTLIONS	99550	49	KODIAKISLAND	9074542288	-3	190	0.38	27749	12471	2197	609	4	1885	-152.883298	57.87453	13049	43	0
AK	AK0060	RUBYCOMMUNITYLIBRARY	10BOBBYKENNEDYSR.WAY	RUBY	99768	10	YUKON-KOYUKUK	9074684432	-3	-3	-3	-3	-3	-3	-3	-3	-3	-155.71915	64.400047	5701	43	0
AK	AK0061	ST.PAULISLANDSCHOOL/COMMUNITYLIBRARY	930TOLSTOLBOULEVARD	SAINTPAUL	99660	905	ALEUTIANSWEST	9075463324	-3	450	0.6	40880	13760	5408	4178	14	2504	-170.27885	57.18359	4529	43	0
AK	AK0064	SELDOVIAPUBLICLIBRARY	260SELDOVIASTREET	SELDOVIA	99663	275	KENAIPENINSULA	9072347662	seldovialibrary.wordpress.com/	257	0	8695	9451	3268	5038	2	683	-151.531478	59.64462	53409	43	0
AK	AK0065	SEWARDCOMMUNITYLIBRARY	2385THAVENUE	SEWARD	99664	2389	KENAIPENINSULA	9072244008	library.cityofseward.net/library/	2619	4.5	391437	28667	89945	66921	11	11227	-149.438759	60.10178	53409	43	0
AK	AK0067	KETTLESONMEMORIALLIBRARY	320HARBORDRIVE	SITKA	99835	7570	SITKA	9077474021	M	8615	7.45	850166	65257	184964	138621	10	55002	-135.334496	57.04958	8889	33	0
AK	AK0068	SKAGWAYPUBLICLIBRARY	769STATESTREET	SKAGWAY	99840	394	SKAGWAY-ANGOON	9079832665	skagwaylibrary.blogspot.com/	846	1.8	178712	10202	14736	14233	3	6523	-135.308005	59.46061	-1	43	0
AK	AK0069	SOLDOTNAPUBLICLIBRARY	235NORTHBINKLEYSTREET	SOLDOTNA	99669	7523	KENAIPENINSULA	9072624227	www.ci.soldotna.ak.us/library.html/	4061	4	380562	45048	90988	102936	6	15768	-151.072559	60.49234	53409	33	0
AK	AK0070	SUTTONPUBLICLIBRARY	11317NORTHJONESVILLEMINEROAD	SUTTON	99674	266	MATANUSKA-SUSITNA	9077454467	www.matsulibraries.org/sutton/	3538	1.63	186488	13471	9152	13682	3	2935	-148.943896	61.7554	85458	43	0
AK	AK0071	TAKOTNACOMMUNITYLIBRARY	RIVERSIDEDRIVE	TAKOTNA	99675	7529	YUKON-KOYUKUK	9072982212	-3	46	0.38	35396	2757	1156	1078	2	750	-156.124971	62.97515	5701	43	0
AK	AK0072	TALKEETNAPUBLICLIBRARY	23151SOUTHTALKEETNASPURROAD	TALKEETNA	99676	768	MATANUSKA-SUSITNA	9077332359	www.matsulibraries.org/talkeetna/	4716	2.1	186435	12186	26000	23692	6	10114	-149.889417	62.17843	85458	43	0
AK	AK0073	TANANACOMMUNITY/SCHOOLLIBRARY	89FRONTSTREET	TANANA	99777	7109	YUKON-KOYUKUK	9073667211	-3	252	0.75	21273	12150	2230	3010	4	1700	-151.892209	65.3268	5701	43	0
AK	AK0074	DERMOTTO'TOOLEMEMORIALLIBRARY	707WESTTENAKEEAVENUE	TENAKEESPRINGS	99841	35	SKAGWAY-ANGOON	9077362248	-3	99	0.25	13816	6097	1172	2040	1	196	-135.212133	57.77754	-1	43	0
AK	AK0075	TOKCOMMUNITYLIBRARY	MILE1314ALASKAHIGHWAY	TOK	99780	227	SEFAIRBANK	9078835623	-3	1382	0	14453	13288	1525	2030	1	781	-142.249751	63.9214	6753	43	0
AK	AK0077	VALDEZCONSORTIUMLIBRARY	212FAIRBANKSSTREET	VALDEZ	99686	609	VALDEZ-CORDOVA	9078354632	www.ci.valdez.ak.us/library/	3635	3.79	367400	45074	30703	21010	6	10015	-146.353761	61.12918	9362	43	0
AK	AK0078	WASILLAPUBLICLIBRARY	391NORTHMAINSTREET	WASILLA	99654	7085	MATANUSKA-SUSITNA	9073732242	www.cityofwasilla.com/library/	29902	9.4	780945	49675	84096	139531	7	16690	-149.441507	61.58256	85458	32	0
AK	AK0080	WILLOWPUBLICLIBRARY	23557WESTWILLOWCOMMUNITYCENTER	WILLOW	99688	129	MATANUSKA-SUSITNA	9074957323	www.matsulibraries.org/willow/	6788	2.4	246328	21856	27349	28527	8	9195	-150.98442	61.67003	85458	43	0
AK	AK0081	IRENEINGLEPUBLICLIBRARY	124SECONDAVENUE	WRANGELL	99929	679	WRANGELL	9078743535	www.wrangell.com/	2112	2.5	216069	35979	26676	29744	4	7999	-132.378872	56.45098	5910	43	0
AK	AK0082	AKIAKSCHOOL/COMMUNITYLIBRARY	1KILBUCKROAD	AKIAK	99552	49	BETHEL	9077654631	www.yupiit.org/resources/libraries.html	341	0.4	22223	7600	3979	3457	1	589	-161.191724	60.88718	17236	43	0
AK	AK0085	FRANCESKIBBLEKENNYLAKEPUBLICLIBRARY	MILE5EDGERTONHIGHWAY	KENNYLAKE	99573	9704	VALDEZ-CORDOVA	9078223015	M	430	0	12727	6670	3338	2816	2	798	-143.873988	61.66443	9362	43	0
AK	AK0087	KOYUKPUBLICLIBRARY	BIRCHSTREET	KOYUK	99753	69	NOME	9079633441	-3	-3	-3	-3	-3	-3	-3	-3	-3	-161.148928	64.939392	9261	43	0
AK	AK0091	TULUKSAKSCHOOL/COMMUNITYLIBRARY	PHILLIPSTREET	TULUKSAK	99679	115	BETHEL	9076955636	www.yupiit.org/Resources/libraries.html	500	0.5	33350	8320	4155	8300	2	720	-160.95319	61.10831	17236	43	0
AK	AK0092	NAQIAKSRATLIBRARY	ROCKYROAD&FISHRIVERROAD	WHITEMOUNTAIN	99784	130	NOME	9076383411	-3	191	0.3	21024	5629	3203	2061	1	15	-162.561429	65.00544	9261	43	0
AK	AK0094	TUZZYCONSORTIUMLIBRARY	5421NORTHSTARSTREET	BARROW	99723	2130	NORTHSLOPE	9078524050	www.tuzzy.org	6692	15	1186644	50768	59822	20607	11	17132	-156.75342	71.29845	6615	43	0
AK	AK0095	AKIACHAKSCHOOL/COMMUNITYLIBRARY	1MAINSTREET	AKIACHAK	99551	190	BETHEL	9078253600	www.yupiit.org/resources/libraries.html	659	0.6	17776	10210	5656	2169	2	2005	-161.409778	60.8781	17236	43	0
AK	AK0097	ESTHERGREENWALDLIBRARY	366GARTEENIHIGHWAY	HOONAH	99829	157	SKAGWAY-ANGOON	9079453611	-3	823	1.13	73550	20703	15150	8056	7	7350	-135.437574	58.10915	-1	43	0
AK	AK0099	MOOSEPASSPUBLICLIBRARY	200DEPOTROAD	MOOSEPASS	99631	154	KENAIPENINSULA	9072883111	-3	186	0	8278	5686	2856	6727	2	406	-149.508366	60.52465	53409	43	0
AK	AK0100	NIKOLAICOMMUNITY/SCHOOLLIBRARY	TOPOFTHEKUSKOKWIMSCHOOLBUILDIN	NIKOLAI	99691	9091	YUKON-KOYUKUK	9072932427	-3	90	0.25	13359	4100	2000	480	8	950	-154.374475	63.00669	5701	43	0
AK	AK0101	SANDPOINTCOMMUNITY/SCHOOLLIBRARY	123REDCOVEROAD	SANDPOINT	99661	269	ALEUTIANSEAST	9073832393	-3	958	0.38	53050	5600	26000	28298	17	11500	-160.487593	55.34761	2810	43	0
AK	AK0102	EGEGIKVILLAGELIBRARY	289AIRPORTWAY	EGEGIK	99579	29	LAKEANDPENINSULA	9072332211	-3	62	0.4	13350	5161	1060	2321	1	300	-157.335327	58.17839	1488	43	0
AK	AK0103	TRAPPERCREEKPUBLICLIBRARY	8901EASTDEVONSHIREDRIVE	TRAPPERCREEK	99683	388	MATANUSKA-SUSITNA	9077331546	www.matsulibraries.org/trappercreek/	1441	0.99	96636	12526	3547	6351	5	1448	-150.321414	61.41243	85458	42	0
AK	AK0104	HOLYCROSSCOMMUNITY/SCHOOLLIBRARY	210TRAILWAYSTREET	HOLYCROSS	99602	210	YUKON-KOYUKUK	9074767131	-3	194	0.25	13350	4503	1000	1108	5	515	-160.443036	62.22932	5701	43	0
AK	AK0113	OUZINKIETRIBALMEDIACENTER	130THIRDSTREET	OUZINKIE	99644	130	KODIAKISLAND	9076802323	-3	167	0.65	16215	2323	3540	1311	6	1800	-152.508261	57.92122	13049	42	0
AK	AK0114	ST.GEORGEISLANDSCHOOL/COMMUNITYLIBRARY	NO.1ELEMENTARYSCHOOLROAD	ST.GEORGE	99591	959	ALEUTIANSWEST	9075463324	-3	112	0.25	25709	4827	1440	441	4	544	-169.619142	56.58272	4529	43	0
AK	AK0115	UNALASKAPUBLICLIBRARY	63ELEANORDRIVE	UNALASKA	99685	1370	ALEUTIANSWEST	9075815060	www.unalaska-ak.us/	3551	4.5	555390	30323	105015	144999	14	66159	-166.529689	53.87054	4529	41	0
AK	AK0116	ANIAKPUBLICLIBRARY	270RIVERFRONTDRIVE	ANIAK	99557	270	BETHEL	9076754435	-3	494	0.25	16402	4300	2600	1544	4	1800	-156.683203	61.4908	17236	43	0
AK	AK0117	HYDERPUBLICLIBRARY	50MAINSTREET	HYDER	99923	50	PRWALES-OUTER	2506369148	-3	94	0	12350	7311	1250	1014	2	275	-130.036515	55.92994	5533	43	0
AK	AK0120	INNOKORIVERCOMMUNITY/SCHOOLLIBRARY	101PINESTREET	SHAGELUK	99665	49	YUKON-KOYUKUK	9074738206	shx.schoolaccess.net/	102	0.5	14338	3774	2000	1041	3	1250	-159.798143	62.64145	5701	43	0
AK	AK0121	ANVIKCOMMUNITY/SCHOOLLIBRARY	1AIRPORTROAD	ANVIK	99558	90	YUKON-KOYUKUK	9076636348	-3	84	0.25	13350	3947	1240	477	4	900	-160.128556	63.27254	5701	43	0
AK	AK0122	GRAYLINGCOMMUNITY/SCHOOLLIBRARY	DAVIDLOUISSCHOOLBUILDING	GRAYLING	99590	90	YUKON-KOYUKUK	9074535135	-3	152	0.25	13614	6512	1315	503	3	860	-159.683027	64.07926	5701	43	0
AK	AK0123	KLAWOCKPUBLICLIBRARY	615NORTHPARKSTREET	KLAWOCK	99925	469	PRWALES-OUTER	9077552261	-3	-3	-3	-3	-3	-3	-3	-3	-3	-132.958135	55.554748	5533	43	0
AK	AK0124	LAKEMINCHUMINACOMMUNITYLIBRARY	123AIRPORTWAY	LAKEMIN	99757	50	YUKON-KOYUKUK	9076743211	lma.mystarband.net/	17	0	7628	3935	788	2627	2	618	-152.385396	63.8005	5701	43	0
AK	AK0126	IGIUGIGTRIBALLIBRARY	1AIRPORTROAD	IGIUGIG	99613	4008	LAKEANDPENINSULA	9075333211	-3	40	0.36	20027	7228	1016	1495	6	540	-156.48296	58.73102	1488	43	0
AK	AK0127	COFFMANCOVECOMMUNITYLIBRARY	106DENALIALLEY	COFFMANCOVE	99918	135	PRWALES-OUTERKE	9073292233	-3	141	0	14200	12519	4932	4961	4	3444	-131.696402	55.35655	5533	33	0
AK	AK0129	MOUNTAINVILLAGEPUBLICLIBRARY	1SAINTMARY'SHIGHWAY	MOUNTAINVILLAGE	99632	85	WADEHAMPTON	9075912970	-3	765	0	11650	4400	870	1480	0	0	-164.537503	62.1696	7717	43	0
AK	AK0130	THORNEBAYPUBLICLIBRARY	120FREEMANDRIVE	THORNEBAY	99919	489	PRWALES-OUTERKE	9078283303	-3	440	0.43	26993	4140	2417	3924	2	988	-132.52418	55.68823	5533	43	0
AK	AK0133	PILOTPOINTTRIBALLIBRARY	2200MAINSTREET	PILOTPOINT	99649	449	LAKEANDPENINSULA	9077972208	-3	72	0.43	16350	1317	1357	1396	1	810	-157.384464	57.52567	1488	43	0
AK	AK0134	WHALEPASSCOMMUNITYLIBRARY	BEACHROADLOT3BLOCK14	WHALEPASS	99950	2080	PRWALES-OUTERKE	9078465226	-3	48	0	9168	4787	1360	1798	2	801	-132.878786	55.76289	5533	43	0
AK	AK0135	TOGIAKPUBLICLIBRARYANDCULTURALCENTER	SECONDAVENUEANDGSTREET	TOGIAK	99678	353	DILLINGHAM	9074935566	-3	802	0	29650	6100	832	855	2	235	-160.391925	59.06007	4933	43	0
AK	AK0136	SCAMMONBAYPUBLICLIBRARY	101ASKINUKSTREET	SCAMMONBAY	99662	110	WADEHAMPTON	9075585400	-3	533	0	12350	3500	1000	150	1	600	-165.080055	61.79161	7717	43	0
AL	AL0001	CARLELLIOTTREGIONALLIBRARYSYSTEM	9818THSTREETEAST	JASPER	35501	5491	WALKER	2052212568	www.youseemore.com/cerl	65686	3.5	240261	3926	221158	2092	3	3687	-87.273906	33.83339	68970	32	4
AL	AL0002	ARLEYPUBLICLIBRARY	6788COUNTYROAD41	ARLEY	35541	146	WINSTON	2053870129	www.youseemore.com/cerl	324	0.5	23510	6840	7582	5374	4	611	-87.2234	34.04997	23974	42	4
AL	AL0003	CORDOVAPUBLICLIBRARY	84MAINST.	CORDOVA	35550	1415	WALKER	2054839578	www.youseemore.com/cerl	2327	0.5	14446	8764	9287	4961	3	211	-87.182924	33.75642	68970	42	4
AL	AL0004	DORAPUBLICLIBRARY	1485SHARONBLVD	DORA	35062	700	WALKER	2056483211	www.youseemore.com/cerl/	-3	-3	-3	-3	-3	-3	-3	-3	-87.07569	33.743559	68970	31	4
AL	AL0005	DOUBLESPRINGSPUBLICLIBRARY	637BLAKEDRIVE	DOUBLESPRINGS	35553	555	WINSTON	2054892412	www.youseemore.com/cerl	993	1	29374	8745	5850	9458	3	798	-87.383461	34.14703	23974	43	4
AL	AL0006	HALEYVILLEPUBLICLIBRARY	91320THSTREET	HALEYVILLE	35565	1323	WINSTON	2054867450	www.youseemore.com/cerl	4148	2	65226	10330	5744	13811	3	1891	-87.623386	34.2263	23974	32	4
AL	AL0007	JASPERPUBLICLIBRARY	98EAST18THSTREET	JASPER	35501	5491	WALKER	2052218512	www.youseemore.com/cerl	14117	2.7	199033	49405	28647	72984	9	8250	-87.273906	33.83339	68970	32	4
AL	AL0009	SUMITONPUBLICLIBRARY	416STATESTREET	SUMITON	35148	10	WALKER	2056487451	www.youseemore.com/cerl	2586	1.5	41470	9722	1272	10262	3	1266	-87.049527	33.74957	68970	31	4
AL	AL0010	CHEAHAREGIONALLIBRARY	935COLEMANSTREET	HEFLIN	36264	1313	CLEBURNE	2564637125	cheaharegionallibrary.org	98537	3	124377	21770	1379	89261	6	113	-85.588945	33.64375	14799	42	3
AL	AL0011	ROANOKE-ANNIEL.AWBREYPUBLICLIBRARY	736COLLEGESTREET	ROANOKE	36274	1616	RANDOLPH	3348632632	-3	6661	5	108124	19487	25588	67048	11	6419	-85.370667	33.1495	22620	32	3
AL	AL0012	ASHLANDCITYPUBLICLIBRARY	11SECONDAVENUENORTH	ASHLAND	36251	296	CLAY	2563543427	M	1869	3	75638	21267	13762	20135	7	3238	-85.837992	33.27473	13809	42	3
AL	AL0013	B.B.COMERMEMORIALLIBRARY	314NORTHBROADWAYAVENUE	SYLACAUGA	35150	2528	TALLADEGA	2562490961	www.sylacauga.net/library	12932	12.75	733211	102297	72588	183223	54	20024	-86.250724	33.17185	80279	32	3
AL	AL0014	CHEROKEECOUNTYPUBLICLIBRARY	310MARYSTREET	CENTRE	35960	2026	CHEROKEE	2569275838	www.cheaharegionallibrary.org	3389	2.5	306770	26840	27650	58250	4	7	-85.67641	34.14928	24545	42	3
AL	AL0015	CHILDERSBURG-EARLEA.RAINWATERMEMORIALLIBRARY	124NINTHAVENUESW	CHILDERSBURG	35044	1642	TALLADEGA	2563787239	www.childersburg.org/library	4985	5	147200	41797	23131	39631	12	8735	-86.355664	33.27752	80279	32	3
AL	AL0016	LINCOLNPUBLICLIBRARY	49COMPLEXDRIVE	LINCOLN	35096	5096	TALLADEGA	2057637777	-3	5047	2.1	101527	16148	8958	7983	5	4080	-86.122667	33.6044	80279	42	3
AL	AL0017	LINEVILLEPUBLICLIBRARY	60119HIGHWAY49	LINEVILLE	36266	482	CLAY	2563965162	cheaharegionallibrary.org	2373	2	31165	14817	6286	11099	2	220	-85.754449	33.31468	13809	42	3
AL	AL0018	HEFLIN-LUCILEL.MORGANPUBLICLIBRARY	541ROSSSTREET	HEFLIN	36264	1339	CLEBURNE	2564632259	M	3412	0.55	33891	15927	9656	10866	8	2863	-85.587878	33.64374	14799	42	3
AL	AL0019	OXFORDPUBLICLIBRARY	110EAST6THSTREET	OXFORD	36203	1617	CALHOUN	2568311750	Cheaharegionallibrary.org	17547	7	377001	34957	20462	59528	20	5591	-85.83545	33.60969	113419	13	3
AL	AL0020	TALLADEGAPUBLICLIBRARY	202SOUTHSTREETEAST	TALLADEGA	35160	2471	TALLADEGA	2563624211	-3	17131	7.5	446407	148900	41540	66335	25	4619	-86.09972	33.43313	80279	32	3
AL	AL0022	ABBEVILLEMEMORIALLIBRARY	301KIRKLANDSTREET	ABBEVILLE	36310	2419	HENRY	3345852818	-3	7922	3	159019	29775	17646	17681	4	7786	-85.250486	31.56676	16591	42	2
AL	AL0023	ARITON-DOTLANEYMEMORIALLIBRARY	30W.MAINSTREET	ARITON	36311	26	DALE	3347622463	-3	750	0.4	24239	10169	1723	1048	4	414	-85.719461	31.60018	48292	42	2
AL	AL0024	HEADLAND-BLANCHER.SOLOMONMEMORIALLIBRARY	17PARKSTREET	HEADLAND	36345	1747	HENRY	3346932706	-3	8783	3	115968	72187	23015	15023	3	4680	-85.342198	31.35231	16591	41	2
AL	AL0025	BRUNDIDGE-TUPPERLIGHTFOOTMEMORIALLIBRARY	164SOUTHMAINSTREET	BRUNDIDGE	36010	1809	PIKE	3347352145	-3	2309	4	150055	15113	11205	12439	5	2754	-85.815509	31.71897	30381	42	2
AL	AL0026	OZARK-DALECOUNTYPUBLICLIBRARY	416JAMESSTREET	OZARK	36360	2090	DALE	3347745480	www.odcpl.com	36980	7	265794	61493	106318	75009	27	15252	-85.632774	31.45219	48292	32	2
AL	AL0029	CLIO-ELTONB.STEPHENSLIBRARY	17SCHOOLSTREET	CLIO	36017	9298	BARBOUR	3343972911	www.centurytel.net	4879	0.5	14153	7680	3212	9688	7	610	-85.612081	31.7087	29309	43	2
AL	AL0030	LOUISVILLEPUBLICLIBRARY	1951MAINST.	LOUISVILLE	36048	125	BARBOUR	3342665210	-3	3237	0.6	10813	5706	240	324	2	190	-85.555289	31.78378	29309	43	2
AL	AL0031	MIDLANDCITY-MARYBERRYBROWNMEMORIALLIBRARY	1318HINTONWATERSAVE	MIDLANDCITY	36350	713	DALE	3349839999	-3	1822	2	28726	7548	2442	1411	4	664	-85.489966	31.32686	48292	41	2
AL	AL0032	NEWTONPUBLICLIBRARY	209OATESDRIVE	NEWTON	36352	9588	DALE	3342993316	-3	2348	1	23707	12440	4475	6634	4	400	-85.596856	31.33194	48292	41	2
AL	AL0033	CLAYTON-TOWNANDCOUNTYPUBLICLIBRARY	45NORTHMIDWAYSTREET	CLAYTON	36016	518	BARBOUR	3347753506	-3	4039	2	29169	15530	2802	1698	8	921	-85.458753	31.88456	29309	43	2
AL	AL0034	TROYPUBLICLIBRARY	300NORTHTHREENOTCHSTREET	TROY	36081	2022	PIKE	3345661314	www.troycitylibrary.org	27311	12.07	535978	78363	81016	176597	16	5577	-85.97222	31.80972	30381	33	2
AL	AL0035	UNIONSPRINGSPUBLICLIBRARY	103NORTHPRAIRIESTREET	UNIONSPRINGS	36089	1616	BULLOCK	3347382760	-3	10906	2.75	58033	13562	17336	5289	6	7247	-85.716105	32.14064	10796	32	2
AL	AL0037	ANDALUSIAPUBLICLIBRARY	212SOUTHTHREENOTCHSTREET	ANDALUSIA	36420	3710	COVINGTON	3342226612	M	17819	8	263568	46349	34199	40738	24	17309	-86.482884	31.30693	36856	33	2
AL	AL0038	BRANTLEYPUBLICLIBRARY	10MLKDR.	BRANTLEY	36009	45	CRENSHAW	3345278624	-3	3530	2	9046	8367	790	6860	2	550	-86.35482	31.59088	13754	43	2
AL	AL0039	ELBAPUBLICLIBRARY	406SIMMONSSTREET	ELBA	36323	1759	COFFEE	3348976921	elbalibrary.com	9678	2.13	91070	14209	17202	17128	4	3372	-86.065581	31.4145	47753	43	2
AL	AL0040	GENEVA-EMMAKNOXKENANPUBLICLIBRARY	312SOUTHCOMMERCESTREET	GENEVA	36340	M	GENEVA	3346842459	genevapubliclibrary.org	8160	2.5	85025	17955	11844	10916	5	5730	-85.865083	31.03622	25882	32	2
AL	AL0041	ENTERPRISEPUBLICLIBRARY	101EASTGRUBBSSTREET	ENTERPRISE	36330	2531	COFFEE	3343472636	enterpriselibrary.org	36349	6.09	298793	47280	93928	103092	11	13660	-85.853377	31.31367	47753	32	2
AL	AL0042	FLORALAPUBLICLIBRARY	1214FOURTHSTREET	FLORALA	36442	1814	COVINGTON	3348583525	-3	6322	3	58924	15182	9783	15572	8	3814	-86.327219	31.00565	36856	43	2
AL	AL0043	HARTFORD/MCGREGOR-MCKINNEYPUBLICLIBRARY	101EASTFULTONST.	HARTFORD	36344	1626	GENEVA	3345882384	-3	6142	2	85167	20752	17591	33204	6	5458	-85.696666	31.09826	25882	42	2
AL	AL0044	LUVERNEPUBLICLIBRARY	148EASTTHIRDAVENUE	LUVERNE	36049	1117	CRENSHAW	3343355326	library.luverne.org	10191	2.4	123174	13302	26256	22409	11	6969	-86.261602	31.71632	13754	43	2
AL	AL0045	OPPPUBLICLIBRARY	1604NORTHMAINSTREET	OPP	36467	717	COVINGTON	3344936423	opplibrary.com	13093	3.3	140105	24552	22165	30231	9	3172	-86.25497	31.30712	36856	41	2
AL	AL0046	SAMSONPUBLICLIBRARY	200NORTHJOHNSONSTREET	SAMSON	36477	2006	GENEVA	3348987806	-3	5777	0.5	34604	8808	3788	4608	4	1140	-86.046002	31.11811	25882	43	2
AL	AL0047	SLOCOMBPUBLICLIBRARY	134SOUTHDALTONAVENUE	SLOCOMB	36375	1026	GENEVA	3348869009	-3	5789	1	8772	0	1000	4455	0	0	-85.593681	31.10703	25882	42	2
AL	AL0048	HORSESHOEBENDREGIONALLIBRARY	207NORTHWESTSTREET	DADEVILLE	36853	1355	TALLAPOOSA	2568259232	horseshoebendlibrary.org	130525	4.25	284038	99098	473600	25868	5	7093	-85.765401	32.83339	40773	42	3
AL	AL0049	ALEXANDERCITY-ADELIAMCCONNELLRUSSELLLIBRARY	318CHURCHSTREET	ALEXANDERCITY	35010	5010	TALLAPOOSA	2563296796	www.alexandercityonline.com	15085	10.7	474301	33786	63752	55908	28	16835	-85.95393	32.94154	40773	33	3
AL	AL0050	DADEVILLEPUBLICLIBRARY	205NORTHWESTSTREET	DADEVILLE	36853	1355	TALLAPOOSA	2568257820	www.dadevillepubliclibrary.com	3235	1.68	65569	8898	17689	33000	9	4165	-85.765401	32.83339	40773	42	3
AL	AL0051	GOODWATERPUBLICLIBRARY	36WEOGUFKASTREET	GOODWATER	35072	140	COOSA	2568395741	-3	1552	1	44242	14005	5434	6625	4	3083	-86.05253	33.06383	10814	42	3
AL	AL0052	AUBURNPUBLICLIBRARY	749EASTTHACHAVENUE	AUBURN	36830	5545	LEE	3345013190	www.auburnalabama.org/library	51906	24	1555526	63038	166326	214386	64	97995	-85.466427	32.60441	133010	13	3
AL	AL0053	OPELIKA-LEWISCOOPERJR.MEMORIALLIBRARY	200SOUTH6THSTREET	OPELIKA	36801	125	LEE	3347055380	www.opelika.net	24563	8.5	605515	62340	85069	100993	19	31991	-85.375903	32.64908	133010	13	3
AL	AL0054	MILLBROOKPUBLICLIBRARY	3650GRANDVIEWROAD	MILLBROOK	36054	525	ELMORE	3342856688	www.library.cityofmillbrook.org	15479	3	140740	30152	78655	74695	12	21540	-86.361986	32.47677	78106	31	2
AL	AL0055	ROCKFORDPUBLICLIBRARY	110MAINSTREET	ROCKFORD	35136	128	COOSA	2563774911	-3	400	1	40002	5253	1704	1572	2	1317	-86.225611	32.87139	10814	43	3
AL	AL0056	TALLASSEECOMMUNITYLIBRARY	99FREEMANAVENUE	TALLASSEE	36078	M	TALLAPOOSA	3342832732	www.tallasseelibrary.com	3465	1.5	74668	24170	25476	38047	6	3120	-85.879175	32.54029	40773	32	3
AL	AL0057	WETUMPKAPUBLICLIBRARY	212SOUTHMAINSTREET	WETUMPKA	36092	249	ELMORE	3345671308	wetumpkalibrary.com	7313	5	236948	23158	25243	73885	15	18216	-86.206127	32.5334	78106	31	2
AL	AL0059	FLORENCE-LAUDERDALEPUBLICLIBRARY	350NORTHWOODAVENUE	FLORENCE	35630	4706	LAUDERDALE	2567646564	www.flpl.org	84745	18	1104804	89822	236261	262489	16	41267	-87.674645	34.80356	89128	13	5
AL	AL0060	TUSCUMBIA-HELENKELLERPUBLICLIBRARY	511NORTHMAINSTREET	TUSCUMBIA	35674	2059	COLBERT	2563837065	-3	12724	3	135711	24964	9725	33874	7	4227	-87.7035	34.73655	54663	23	5
AL	AL0061	LEIGHTONPUBLICLIBRARY	8740MAINSTREET	LEIGHTON	35646	484	COLBERT	2564465380	M	5358	0.55	15950	9298	3820	3786	3	1700	-87.528964	34.70015	54663	42	5
AL	AL0062	MUSCLESHOALSPUBLICLIBRARY	1918EASTAVALONAVENUE	MUSCLESHOALS	35661	2402	COLBERT	2563869212	Cityofmuscleshoals.com	17224	11.2	528455	45577	74610	162005	22	15795	-87.64515	34.74444	54663	13	5
AL	AL0063	ROGERSVILLEPUBLICLIBRARY	74BANKSTREET	ROGERSVILLE	35652	191	LAUDERDALE	2562470151	www.rogersvillelibrary.org	1191	2.5	113003	31505	25181	41906	15	5608	-87.29206	34.82425	89128	42	5
AL	AL0064	SHEFFIELDPUBLICLIBRARY	316NORTHMONTGOMERYAVENUE	SHEFFIELD	35660	2709	COLBERT	2563865633	www.lmn.lib.al.us/screens/SHPweb.html	13754	4	260271	54483	57000	58251	31	8696	-87.698531	34.76144	54663	23	5
AL	AL0065	NORTHWESTREGIONALLIBRARY	185ASHWOODDRIVE	WINFIELD	35594	1527	MARION	2054872330	-3	36002	3	103205	82408	112865	8615	5	5578	-87.815049	33.93085	29465	43	4
AL	AL0066	HAMILTON-CLYDENIXPUBLICLIBRARY	350BEXARAVENUEWEST	HAMILTON	35570	1944	MARION	2059214290	-3	6517	1.5	55150	15834	14980	19228	8	2092	-87.992322	34.14318	29465	43	4
AL	AL0067	KENNEDYPUBLICLIBRARY	17885HWY.96	KENNEDY	35574	70	LAMAR	2055963670	-3	499	0.8	13875	4053	331	334	2	76	-87.976044	33.58605	14295	42	4
AL	AL0068	MCHSCOMMUNITYLIBRARY	8115U.S.HIGHWAY43	GUIN	35563	549	MARION	2054682544	-3	2242	1.75	40817	18602	13910	13952	12	5316	-87.89401	33.967	29465	43	4
AL	AL0069	MILLPORTPUBLICLIBRARY	920BLACKSTREET	MILLPORT	35576	159	LAMAR	2056624286	-3	1031	0.7	20910	9800	3629	1346	7	577	-88.089351	33.56156	14295	43	4
AL	AL0070	RUSSELLVILLEPUBLICLIBRARY	110EASTLAWRENCESTREET	RUSSELLVILLE	35653	2349	FRANKLIN	2563321535	-3	18205	3	76169	19534	5800	15815	5	1214	-87.730263	34.50473	30801	32	4
AL	AL0071	SULLIGENTPUBLICLIBRARY	514ELMSTREET	SULLIGENT	35586	215	LAMAR	2056988631	-3	1985	1.25	46500	12930	10261	8065	5	2165	-88.13174	33.90033	14295	43	4
AL	AL0072	VERNON-MARYWALLACECOBBMEMORIALLIBRARY	110FIRSTAVENUEWEST	VERNON	35592	357	LAMAR	2056956123	-3	1927	1.5	73546	11940	12575	8935	6	1967	-88.109729	33.7091	14295	43	4
AL	AL0073	REDBAY-WEATHERFORDPUBLICLIBRARY	3074THAVENUESOUTH	REDBAY	35582	870	FRANKLIN	2563569255	-3	3294	0.63	40605	11033	8567	8683	7	3288	-88.149203	34.41045	30801	43	4
AL	AL0074	WINFIELDPUBLICLIBRARY	185ASHWOODDRIVE	WINFIELD	35594	688	MARION	2054872484	-3	3858	2	61278	26476	20956	21678	7	7313	-87.815049	33.93085	29465	43	4
AL	AL0076	ATHENS-LIMESTONEPUBLICLIBRARY	405EASTSOUTHSTREET	ATHENS	35611	2664	LIMESTONE	2562321233	www.athenslimestone.lib.al.us	72446	7.7	461191	60596	80123	151431	15	20478	-86.963939	34.7997	76135	32	5
AL	AL0077	DECATURPUBLICLIBRARY	504CHERRYST.,NE	DECATUR	35601	1801	MORGAN	2563532993	www.decatur.lib.al.us	88895	19.98	953155	104324	246114	227206	47	60127	-86.981692	34.6071	115959	13	5
AL	AL0078	HARTSELLE-WILLIAMBRADFORDHUIEPUBLICLIBRARY	152SPARKMANSTREETNW	HARTSELLE	35640	2402	MORGAN	2567739880	-3	21392	3	136269	30153	35981	35981	7	9077	-86.934995	34.44423	115959	31	5
AL	AL0079	LAWRENCECOUNTYPUBLICLIBRARY	401COLLEGESTREET	MOULTON	35650	1483	LAWRENCE	2569740883	-3	32756	7	212828	36223	33017	89502	16	13122	-87.29446	34.47587	34166	41	5
AL	AL0080	BALDWINCOUNTYLIBRARYCOOPERATIVE	22251PALMERSTREET	ROBERTSDALE	36567	399	BALDWIN	2519704010	www.gulftel.com/bclc	91503	8	231928	18837	31214	40868	7	6611	-87.716869	30.54952	174439	32	1
AL	AL0081	DAPHNEPUBLICLIBRARY	2607U.S.HIGHWAY98	DAPHNE	36526	1225	BALDWIN	2516212818	daphneal.com/library	18996	11.88	743116	49850	213962	270871	8	17779	-87.873901	30.63231	174439	41	1
AL	AL0082	FAIRHOPEPUBLICLIBRARY	501FAIRHOPEAVE.	FAIRHOPE	36532	2490	BALDWIN	2519287483	www.fairhopelibrary.org	16164	12.83	792459	57716	153660	203314	70	51819	-87.901851	30.52306	174439	32	1
AL	AL0083	FOLEYPUBLICLIBRARY	319EASTLAURELAVENUE	FOLEY	36535	2680	BALDWIN	2519437665	www.foleylibrary.org	12712	11.92	931484	50183	241525	225198	44	40901	-87.679613	30.40637	174439	32	1
AL	AL0084	BAYMINETTEPUBLICLIBRARY	205WESTSECONDSTREET	BAYMINETTE	36507	4838	BALDWIN	2515801648	www.bayminettepubliclibrary.org	7697	7	290473	33340	28189	77951	5	10869	-87.776117	30.88258	174439	32	1
AL	AL0085	LOXLEYPUBLICLIBRARY	1001LOXLEYAVENUE	LOXLEYABAMA	36551	527	BALDWIN	2519645695	M	1555	3	35401	9035	6000	9210	6	650	-87.752881	30.61993	174439	42	1
AL	AL0086	OSCARJOHNSONMEMORIALLIBRARY	15965SILVERHILLAVE.	SILVERHILL	36576	309	BALDWIN	2519455201	-3	-3	-3	-3	-3	-3	-3	-3	-3	-87.751464	30.54556	174439	32	1
AL	AL0087	ROBERTSDALEPUBLICLIBRARY	18301PENNSYLVANIASTREET	ROBERTSDALE	36567	3072	BALDWIN	2519478960	ROBERTSDALE.ORG	4814	7	286663	24122	45236	63930	13	13201	-87.71341	30.55299	174439	32	1
AL	AL0088	GULFSHORES-THOMASB.NORTONPUBLICLIBRARY	221WEST19THAVENUE	GULFSHORES	36542	3055	BALDWIN	2519681176	M	8814	10	546200	44556	170926	79639	23	28635	-87.69243	30.27247	174439	32	1
AL	AL0090	ADAMSVILLEPUBLICLIBRARY	4825MAINSTREET	ADAMSVILLE	35005	241	JEFFERSON	2056743399	-3	4806	2	108492	15001	14035	19305	7	2975	-86.953238	33.60013	659503	21	6
AL	AL0091	BESSEMERPUBLICLIBRARY	40019THSTREETN	BESSEMER	35020	5305	JEFFERSON	2054287882	www.bessemer.lib.al.us	28416	17	693374	68511	100895	99228	57	25963	-86.954666	33.4032	659503	21	7
AL	AL0092	MOUNTAINBROOK-EMMETO'NEALLIBRARY	50OAKSTREET	MOUNTAINBROOK	35213	4295	JEFFERSON	2058790459	www.eolib.org	20927	29	2300757	125525	263858	334700	64	73372	-86.755554	33.50099	659503	21	6
AL	AL0093	FAIRFIELD-WALTERJ.HANNAMEMORIALLIBRARY	4615GARYAVENUE	FAIRFIELD	35064	1341	JEFFERSON	2057836007	M	11547	7	178571	27466	18321	13195	13	5062	-86.915247	33.49128	659503	21	7
AL	AL0094	FULTONDALEPUBLICLIBRARY	1015OLDWALKERSCHAPELROAD	FULTONDALE	35068	549	JEFFERSON	2058496335	M	6905	7	251468	29120	10145	16418	12	6423	-86.798343	33.60846	659503	21	6
AL	AL0095	GARDENDALE-MARTHAMOOREPUBLICLIBRARY	995MT.OLIVEROAD	GARDENDALE	35071	1165	JEFFERSON	2056316639	gardendale.lib.al.us	13042	10.5	596751	61839	138015	166215	20	35658	-86.818643	33.6506	659503	21	6
AL	AL0096	GRAYSVILLEPUBLICLIBRARY	315SOUTHMAINSTREET	GRAYSVILLE	35073	402	JEFFERSON	2056743040	GRAYSVILLE.LIB.AL.US	2422	2	108547	18223	9555	33095	6	4020	-86.973327	33.62663	659503	21	6
AL	AL0097	HOMEWOODPUBLICLIBRARY	1721OXMOORROAD	HOMEWOOD	35209	4085	JEFFERSON	2053326600	www.homewood.lib.al.us	23780	35.54	2131858	75141	508695	568138	131	84554	-86.795368	33.47552	659503	21	6
AL	AL0098	HOOVERPUBLICLIBRARY	200MUNICIPALDRIVE	HOOVER	35216	5510	JEFFERSON	2054447810	www.hooverlibrary.org	49514	71.22	5623759	204725	636324	1487497	147	174938	-86.80588	33.3878	659503	13	6
AL	AL0099	HUEYTOWNPUBLICLIBRARY	1372HUEYTOWNROAD	HUEYTOWN	35023	2443	JEFFERSON	2054911443	M	15876	6	143927	49344	48807	65625	11	30409	-86.997617	33.4491	659503	21	6
AL	AL0100	IRONDALEPUBLICLIBRARY	105TWENTIETHSTREETSOUTH	IRONDALE	35210	1593	JEFFERSON	2059511415	M	9510	5.53	350481	41128	13800	61347	10	17612	-86.706714	33.5379	659503	21	7
AL	AL0101	LEEDS-JANECULBRETHLIBRARY	8104PARKWAYDRIVE	LEEDS	35094	2225	JEFFERSON	2056995962	www.leedslibrary.com	9394	5.6	306357	31738	46224	54071	16	9360	-86.561834	33.5398	659503	41	6
AL	AL0102	MIDFIELDPUBLICLIBRARY	400BRELANDDRIVE	MIDFIELD	35228	2732	JEFFERSON	2059231027	midfield.lib.al.us	5246	2.42	101591	15481	13764	12578	10	9691	-86.915611	33.4576	659503	21	7
AL	AL0103	PLEASANTGROVEPUBLICLIBRARY	501PARKROAD	PLEASANTGROVE	35127	339	JEFFERSON	2057441742	M	10283	2.5	172485	24693	26576	44109	12	8442	-86.970232	33.49061	659503	21	6
AL	AL0104	TARRANTPUBLICLIBRARY	1143FORDAVENUE	TARRANT	35217	2437	JEFFERSON	2058410575	-3	6608	4	196030	38721	24201	19044	7	8914	-86.770589	33.58359	659503	21	6
AL	AL0105	TRUSSVILLEPUBLICLIBRARY	201PARKWAYDRIVE	TRUSSVILLE	35173	1125	JEFFERSON	2056552022	www.trussvillelibrary.com	17621	13	930141	83520	126775	267520	14	46852	-86.604659	33.62651	659503	21	6
AL	AL0106	VESTAVIAHILLSPUBLICLIBRARY	1112MONTGOMERYHIGHWAY	VESTAVIAHILLS	35216	2797	JEFFERSON	2059780155	vestavia.lib.al.us	31028	17	1360502	91469	228649	240981	37	21708	-86.78852	33.4369	659503	21	6
AL	AL0107	WARRIORPUBLICLIBRARY	101FIRSTSTREET	WARRIOR	35180	1500	JEFFERSON	2056473006	M	3008	2.5	113887	25791	16467	29464	4	3489	-86.807909	33.8134	659503	31	6
AL	AL0108	BIRMINGHAMPUBLICLIBRARY	2100PARKPLACE	BIRMINGHAM	35203	2794	JEFFERSON	2052263610	bplonline.org	228853	235.9	18161924	798413	2197460	1513449	578	778453	-86.80784	33.52058	659503	12	7
AL	AL0109	FORTPAYNE-DEKALBCOUNTYPUBLICLIBRARY	504GRANDAVENUENW	FORTPAYNE	35967	2314	DEKALB	2568452671	-3	58465	4.4	300374	82816	53974	114678	14	13696	-85.720235	34.44492	68515	32	4
AL	AL0110	COLLINSVILLEPUBLICLIBRARY	4299ALABAMAHIGHWAY68	COLLINSVILLE	35961	743	DEKALB	2565242323	-3	1679	3	113151	7031	8329	2448	15	3478	-85.879432	34.27868	68515	42	4
AL	AL0111	GERALDINEPUBLICLIBRARY	13543ALABAMAHIGHWAY227	GERALDINE	35974	268	DEKALB	2566596663	M	831	2.25	36344	35741	5765	4891	11	2494	-86.024644	34.36257	68515	42	4
AL	AL0112	RAINSVILLEPUBLICLIBRARY	941EASTMAINSTREET	RAINSVILLE	35986	509	DEKALB	2566383311	M	4871	4.42	196292	47546	33925	53865	11	125	-85.82901	34.48679	68515	42	4
AL	AL0113	ESCAMBIACOUNTYCOOPERATIVELIBRARYSYSTEM	700EASTCHURCHSTREET	ATMORE	36502	2694	ESCAMBIA	2513684130	-3	23491	1.5	65433	7399	81356	5951	21	19199	-87.485677	31.02261	37490	32	1
AL	AL0114	ATMOREPUBLIC	700E.CHURCHSTREET	ATMORE	36502	2630	ESCAMBIA	2513685234	www.atmorelibrary.com	7485	6.9	288345	47958	37420	58484	24	13436	-87.485677	31.02261	37490	32	1
AL	AL0115	BREWTONPUBLICLIBRARY	206WESTJACKSONSTREET	BREWTON	36426	1518	ESCAMBIA	2518674626	M	5326	11	412569	49287	48600	133359	27	18720	-87.070522	31.12027	37490	32	1
AL	AL0116	FLOMATONPUBLICLIBRARY	608MCCURDYSTREET	FLOMATON	36441	608	ESCAMBIACOUNTY	2512963552	M	1547	2.75	125830	24815	26496	104476	11	6010	-87.260156	31.00409	37490	41	1
AL	AL0117	GADSDEN-ETOWAHCOUNTYPUBLICLIBRARY	254COLLEGESTREET	GADSDEN	35901	4135	ETOWAH	2565494699	www.gadsdenlibrary.org	80867	35	1605455	181961	351160	220411	58	20300	-86.009857	34.01248	103303	13	4
AL	AL0118	ATTALLA-ETOWAHCOUNTYPUBLICLIBRARY	604NORTH4THSTREET	ATTALLA	35954	2033	ETOWAH	2565389266	M	6455	2.5	183418	27761	14000	12893	12	9200	-86.08743	34.02416	103303	23	4
AL	AL0119	RAINBOWCITYPUBLICLIBRARY	3702RAINBOWDRIVE	RAINBOWCITY	35906	6324	ETOWAH	2564428477	www.rbclibrary.org	9000	7	349704	53016	83973	123222	13	12475	-86.059341	33.94185	103303	23	4
AL	AL0121	DEMOPOLISPUBLICLIBRARY	211E.WASHINGTONSTREET	DEMOPOLIS	36732	2102	MARENGO	3342891595	M	13533	11	331982	23612	64957	48499	14	16417	-87.836155	32.51734	21055	33	7
AL	AL0122	MARENGOCOUNTYPUBLICLIBRARY	507NORTHMAIN	LINDEN	36748	519	MARENGO	3342952246	-3	7406	1	99654	8152	12129	13977	11	3766	-87.798093	32.3112	21055	43	7
AL	AL0123	MARSHALLCOUNTYCOOPERATIVELIBRARY	600COLLEGESTREET	ALBERTVILLE	35950	2438	MARSHALL	2568788523	-3	44282	2.5	73007	10715	4222	21125	0	0	-86.210157	34.25726	88484	32	4
AL	AL0124	ARABPUBLICLIBRARY	3252NDSTREETNW	ARAB	35016	1346	MARSHALL	2565863366	www.arabcity.org	7614	7	213862	58387	20815	68006	13	7975	-86.49695	34.32038	88484	32	4
AL	AL0125	BOAZPUBLICLIBRARY	404THOMASAVE.	BOAZ	35957	2025	MARSHALL	2565938056	www.boazpubliclibrary.org	7387	5.9	263708	41289	27054	116184	5	13128	-86.161797	34.20079	88484	32	4
AL	AL0126	GUNTERSVILLEPUBLICLIBRARY	1240O'BRIGAVENUE	GUNTERSVILLE	35976	1431	MARSHALL	2565717595	www.guntersvillelibrary.org	8009	9	329003	53708	23800	60192	8	11410	-86.302149	34.34911	88484	32	4
AL	AL0127	ALBERTVILLEPUBLICLIBRARY	200JACKSONSTREET	ALBERTVILLE	35950	430	MARSHALL	2568918290	www.albertvillelibrary.org	19205	5.5	309227	75265	66513	106447	8	10985	-86.203086	34.26443	88484	32	4
AL	AL0128	HARRISONREGIONALLIBRARYSYSTEM	50LESTERSTREET	COLUMBIANA	35051	9477	SHELBY	2056693910	www.shelbycounty-al.org	58996	10	426962	9935	13999	10799	12	2524	-86.607628	33.18538	187784	42	6
AL	AL0129	ALABASTER-ALBERTL.SCOTTLIBRARY	1009THSTREETN.W.	ALABASTER	35007	9172	SHELBY	2056646822	www.shelbycounty-al.org	28240	11.25	780234	46340	94642	185154	14	12869	-86.82663	33.24435	187784	21	6
AL	AL0130	CALERAPUBLICLIBRARY	9700HIGHWAY25	CALERA	35040	690	SHELBY	2056683514	cityofcalera.org	8100	7	350087	30940	24424	67353	14	4755	-86.76935	33.09693	187784	42	6
AL	AL0131	COLUMBIANAPUBLICLIBRARY	50LESTERSTREET	COLUMBIANA	35051	1459	SHELBY	2056695812	www.cityofcolumbiana.com	3746	5	197883	28861	54729	65059	14	8914	-86.607628	33.18538	187784	42	6
AL	AL0132	HELENA-JANEB.HOLMESPUBLICLIBRARY	230TUCKERROAD	HELENA	35080	262	SHELBY	2056648308	WWW.SHELBYCOUNTY-AL.ORG	13794	5	294953	25429	46350	159944	13	4042	-86.842523	33.2897	187784	21	6
AL	AL0133	VINCENT-LALLOUISEF.MCGRAWLIBRARY	42860HIGHWAY25	VINCENT	35178	3	SHELBY	2056722749	M	1958	1	66170	7409	5002	5254	3	999	-86.416809	33.40527	187784	42	6
AL	AL0134	MONTEVALLO-PARNELLMEMORIALLIBRARY	277PARKDRIVE	MONTEVALLO	35115	845	SHELBY	2056659207	www.cityofmontevallo.com	5201	3.87	416684	19587	25880	35249	19	8256	-86.858792	33.10179	187784	31	6
AL	AL0135	PELHAMPUBLICLIBRARY	3160PELHAMPARKWAY	PELHAM	35124	1627	SHELBY	2056206418	pelhamlibrary.com	20120	20	1093611	46748	175815	383186	19	14173	-86.810842	33.28794	187784	21	6
AL	AL0136	WILSONVILLE-VERNICESTOUDENMIRELIBRARY	MAINSTREET	WILSONVILLE	35186	24	SHELBY	2056696180	www.shelbycounty-al.org	1756	1.25	25102	6584	1857	1414	4	389	-86.506998	33.22778	187784	42	6
AL	AL0137	NORTHSHELBYLIBRARY	5521CAHABAVALLEYROAD	BIRMINGHAM	35242	4901	SHELBY	2054395555	-3	32041	19	1045765	57567	142000	199420	14	11750	-86.681969	33.4042	187784	21	6
AL	AL0140	ALICEVILLEPUBLICLIBRARY	416THIRDAVENUENE	ALICEVILLE	35442	2207	PICKENS	2053736691	M	6034	2.75	70642	19935	13430	12410	9	3284	-88.147839	33.12936	19524	43	7
AL	AL0141	CARROLLTONPUBLICLIBRARY	225COMMERCEAVENUE	CARROLLTON	35447	92	PICKENS	2053672142	www.faceinthewindow.com	4521	0.67	48442	13891	7287	15065	10	1981	-88.09437	33.2571	19524	42	7
AL	AL0142	GORDO-RUTHHOLLIMANMEMORIALPUBLICLIBRARY	287MAINSTREETSOUTH	GORDO	35466	336	PICKENS	2053647148	-3	5163	0.78	30649	11779	10423	13784	4	2226	-87.903085	33.31819	19524	42	4
AL	AL0143	REFORMPUBLICLIBRARY	302FIRSTSTREETSOUTH	REFORM	35481	819	PICKENS	2053756240	M	5414	1	40013	11813	6862	7500	10	3780	-88.015961	33.3767	19524	42	7
AL	AL0144	ST.CLAIRCOUNTYLIBRARY	1395THAVENUE	ASHVILLE	35953	308	ST.CLAIR	2055943694	-3	40668	3.2	179178	23732	8493	11085	14	2303	-86.252711	33.83726	79837	42	4
AL	AL0145	ASHVILLEPUBLICLIBRARY	196SIXTHAVENUE	ASHVILLE	35953	187	ST.CLAIR	2055947954	-3	2473	0.75	34871	13335	4143	3610	6	703	-86.253868	33.8365	79837	42	4
AL	AL0146	MOODY-DORISSTANLEYMEMORIALLIBRARY	1515BOOKMARKLANE	MOODY	35004	2239	ST.CLAIR	2056402517	-3	11578	2.75	118147	19206	19179	29113	9	7439	-86.485327	33.59208	79837	41	6
AL	AL0147	ODENVILLEPUBLICLIBRARY	200ALABAMASTREET	ODENVILLE	35120	249	ST.CLAIR	2056295901	www.odenlib.org	1225	1.6	87371	13607	19726	15425	13	5486	-86.396318	33.68291	79837	42	6
AL	AL0148	PELLCITYPUBLICLIBRARY	19231STAVENUENORTH	PELLCITY	35125	1663	ST.CLAIR	2058841015	www.pc.lib.al.us	13733	6	319413	30807	54850	79147	9	29925	-86.285981	33.5872	79837	41	6
AL	AL0151	YORK-HIGHTOWERMEMORIALLIBRARY	6022NDAVENUE	YORK	36925	M	SUMTER	2053922004	-3	2596	0.7	31228	16624	3700	5178	4	2500	-88.296343	32.4864	13266	43	7
AL	AL0152	LIVINGSTON-RUBYPICKENSTARTTPUBLICLIBRARY	206MONROESTREET	LIVINGSTON	35470	377	SUMTER	2056522349	-3	11010	3.3	148799	29168	18380	29377	5	1593	-88.189306	32.5843	13266	43	7
AL	AL0154	ANNISTON-CALHOUNCOUNTYPUBLICLIBRARY	108EAST10THSTREET	ANNISTON	36201	5662	CALHOUN	2562378501	www.publiclibrary.cc	80007	18.5	893882	103829	95232	190889	72	69595	-85.828184	33.65709	113419	13	3
AL	AL0155	JACKSONVILLEPUBLICLIBRARY	200PELHAMROADSOUTH	JACKSONVILLE	36265	2153	CALHOUN	2564356332	jacksonvillepubliclibrary.org	9114	9.42	449080	52624	44759	91757	34	7704	-85.761243	33.81522	113419	23	3
AL	AL0156	PIEDMONTPUBLICLIBRARY	106NMAINSTREET	PIEDMONT	36272	2022	CALHOUN	2564473369	-3	5008	4	113068	20359	24685	31149	10	3310	-85.613567	33.92345	113419	32	3
AL	AL0157	AKRONPUBLICLIBRARY	207FIRSTAVENUESOUTH	AKRON	35441	8	HALE	2053723148	-3	2559	1	5627	3585	454	694	0	0	-87.722532	32.84956	18145	42	7
AL	AL0158	DOTHAN/HOUSTON-LOVEMEMORIALLIBRARY	212WESTBURDESHAWSTREET	DOTHAN	36303	4421	HOUSTON	3347939767	houstonlovelibrary.org	95660	22	936579	209394	182097	243586	52	57822	-85.394347	31.22795	98488	42	2
AL	AL0159	BLOUNTSVILLEPUBLICLIBRARY	65CHESTNUTSTREET	BLOUNTSVILLE	35031	219	BLOUNT	2054293156	M	13894	2	111930	31430	46000	42788	8	2780	-86.589984	34.07894	57441	42	4
AL	AL0160	CHEROKEEPUBLICLIBRARY	118CHURCHSTREET	CHEROKEE	35616	333	COLBERT	2563594384	M	5706	0.7	25259	23890	3380	13162	7	4843	-87.972203	34.756	54663	42	5
AL	AL0161	BRENT-CENTREVILLEPUBLICLIBRARY	20LIBRARYSTREET	CENTREVILLE	35042	1322	BIBB	2059264736	-3	18042	3	65200	27263	37092	35730	5	13400	-87.150862	32.94501	21629	41	6
AL	AL0162	CHILTON-CLANTONPUBLICLIBRARY	100FIRSTAVENUE	CLANTON	35045	3499	CHILTON	2057551768	www.ccpl.lib.al.us	41953	6	239976	69728	40555	51321	12	10250	-86.624538	32.84072	42444	42	6
AL	AL0163	CHOCTAWCOUNTYPUBLICLIBRARY	124NORTHACADEMYAVENUE	BUTLER	36904	2206	CHOCTAW	2054592542	choctawbookworm.wetpaint.com	14656	3.92	277153	77582	25721	24681	13	4100	-88.220066	32.09019	14055	43	7
AL	AL0164	CITRONELLEMEMORIALLIBRARY	7855STATESTREET	CITRONELLE	36522	2450	MOBILE	2518667319	M	3712	4	100399	30160	10028	8512	11	2900	-88.228948	31.09091	406309	42	1
AL	AL0165	GROVEHILLPUBLICLIBRARY	108DUBOSEAVENUE	GROVEHILL	36451	9502	CLARKE	2512758157	-3	6723	1.2	46177	12282	7233	5805	10	2354	-87.775112	31.70534	26304	43	1
AL	AL0166	HUNTSVILLE-MADISONCOUNTYPUBLICLIBRARY	915MONROESTREET	HUNTSVILLE	35801	5077	MADISON	2565325950	www.hpl.lib.al.us	304307	116.41	6445789	596594	955993	2070905	219	229387	-86.590277	34.72336	319510	12	5
AL	AL0167	EUTAW-JAMESC.POOLEJR.MEMORIALLIBRARY	420PRAIRIEAVENUE	EUTAW	35462	5114	GREENE	2053729026	-3	9374	2	59537	14020	17230	11671	17	12318	-87.88783	32.84269	9172	42	7
AL	AL0168	GREENVILLE-BUTLERCOUNTYPUBLICLIBRARY	309FT.DALESTREET	GREENVILLE	36037	1401	BUTLER	3343823216	M	20520	3.9	234493	36653	46500	30338	19	9500	-86.626174	31.8319	20090	33	2
AL	AL0169	HALECOUNTYLIBRARY	1103MAINSTREET	GREENSBORO	36744	399	HALE	3346243409	-3	8951	1.2	44996	14612	9321	7322	4	2020	-87.592238	32.70406	18145	32	7
AL	AL0170	CHICKASAW-INAPULLENSMALLWOODMEMORIALLIBRARY	224GRANTSTREET	CHICKASAW	36611	2153	MOBILE	2514526465	M	6042	2	52158	27838	18927	10470	12	9877	-88.078362	30.76494	406309	21	1
AL	AL0171	JACKSON-WHITESMITHMEMORIALLIBRARY	213COLLEGEAVENUE	JACKSON	36545	265	CLARKE	2512464962	-3	10615	5	407066	21314	13674	18919	18	5965	-87.893736	31.51237	26304	33	1
AL	AL0172	MARION-PERRYCOUNTYLIBRARY	202WASHINGTONSTREET	MARION	36756	1824	PERRY	3346836411	www.marionperrycountylibrary.com	7168	2	65134	12457	11298	4623	11	5343	-87.31907	32.63421	10643	43	7
AL	AL0173	WOODVILLEPUBLICLIBRARY	26VENSONSTREET	WOODVILLE	35776	116	JACKSON	2567762796	bellsouthpwp2.net/p/u/publicw/	758	1	48146	19760	4141	13942	9	1696	-86.274704	34.62723	53134	42	5
AL	AL0174	CITYOFBAYOULABATREPUBLICLIBRARY	12747PADGETTSWITCHROAD	IRVINGTON	36509	2410	MOBILE	2518244213	-3	2745	1.5	45255	13562	5029	22819	7	2058	-88.241606	30.4252	406309	21	1
AL	AL0175	SCOTTSBOROPUBLICLIBRARY	1002SOUTHBROADSTREET	SCOTTSBORO	35768	2512	JACKSON	2565744335	www.scottsborolibrary.com	47858	6	239172	39425	64250	64911	10	13400	-86.035173	34.65779	53134	32	5
AL	AL0176	ONEONTAPUBLICLIBRARY	221SECONDSTREETSOUTH	ONEONTA	35121	2109	BLOUNT	2052747641	www.oneontapubliclibrary.org	42542	7.1	341969	50063	64272	134973	22	11328	-86.475671	33.9445	57441	32	4
AL	AL0177	THOMASVILLEPUBLICLIBRARY	1401MOSLEYDRIVE	THOMASVILLE	36784	3334	CLARKE	3346365343	www.thomasvillepubliclibrary.org	9910	3.96	166596	19805	33721	38995	21	8595	-87.736905	31.9319	26304	41	7
AL	AL0178	MACONCOUNTY-TUSKEGEEPUBLICLIBRARY	302SOUTHMAINSTREET	TUSKEGEE	36083	1807	MACON	3347275192	-3	22594	5	260039	5772	18038	18392	29	16158	-85.689058	32.42189	22290	32	3
AL	AL0179	MOUNDVILLEPUBLICLIBRARY	410MARKETSTREET	MOUNDVILLE	35474	336	HALE	2053712283	-3	6726	1	43245	9321	4064	4186	4	856	-87.631279	32.99839	18145	42	7
AL	AL0180	UNIONTOWNPUBLICLIBRARY	108WATERSTREET	UNIONTOWN	36786	637	PERRY	3346286681	M	4018	2	31697	10319	3554	3946	4	119	-87.523784	32.41158	10643	43	7
AL	AL0181	PRICHARDPUBLICLIBRARY	300WESTLOVEJOYLOOP	PRICHARD	36610	3952	MOBILE	2514527847	-3	28151	9	213201	61842	16002	16393	16	9106	-88.083931	30.73224	406309	21	1
AL	AL0182	WASHINGTONCOUNTYPUBLICLIBRARY	14102ST.STEPHENSAVE.	CHATOM	36518	1057	WASHINGTON	2518472097	www.wcpls.org	17651	7	424482	87044	28707	25638	28	6083	-88.209143	31.4529	17204	43	1
AL	AL0184	EVERGREENPUBLICLIBRARY	119CEMETERYAVENUE	EVERGREEN	36401	2903	CONECUH	2515782670	-3	13403	7	204717	32283	14200	32538	12	13600	-86.954008	31.43397	13066	43	2
AL	AL0186	MOBILEPUBLICLIBRARY	701GOVERNMENTSTREET	MOBILE	36602	1402	MOBILE	2512087073	M	356692	152.25	8972630	539695	1369611	1975446	365	263375	-88.050459	30.68722	406309	12	1
AL	AL0187	MONTGOMERYCITY-COUNTYPUBLICLIBRARY	245HIGHSTREET	MONTGOMERY	36104	4286	MONTGOMERY	3342404300	www.mccpl.lib.al.us	223571	72	4946651	571862	808011	726350	175	143046	-86.305395	32.37188	224810	12	3
AL	AL0188	WHITEHALLPUBLICLIBRARY	640FREEDOMROAD	WHITEHALL	36040	2830	LOWNDES	3348747323	WHITEHALLPUBLICLIBRARY.NET	2766	1	19048	11608	403	1561	4	23	-86.712635	32.3016	12644	42	2
AL	AL0189	STEVENSONPUBLICLIBRARY	102WESTMAINSTREET	STEVENSON	35772	3564	JACKSONCOUNTY	2564373008	-3	2146	1	41402	13248	2500	5522	6	1900	-85.836287	34.8703	53134	42	5
AL	AL0190	KILLENPUBLICLIBRARY	325J.C.MAULDINHIGHWAY	KILLEN	35645	542	LAUDERDALE	2567575471	-3	1122	1.6	46522	21189	10150	11736	3	1771	-87.547366	34.85742	89128	41	5
AL	AL0191	LEXINGTON-BURCHELLCAMPBELLMEMORIALLIBRARY	11075HIGHWAY101	LEXINGTON	35648	459	LAUDERDALE	2562295579	-3	833	3	42618	13651	4305	11305	5	1068	-87.371204	34.9686	89128	42	5
AL	AL0192	AUTAUGA-PRATTVILLEPUBLICLIBRARY	254DOSTERSTREET	PRATTVILLE	36067	3900	AUTAUGA	3343653396	www.appl.info	49730	19	725424	90074	224870	130082	31	38000	-86.468856	32.45693	50364	42	2
AL	AL0193	FAYETTECOUNTYMEMORIALLIBRARY	326TEMPLEAVENUENORTH	FAYETTE	35555	2383	FAYETTE	2059326625	fcml.org	18005	3.37	179512	62251	31403	38818	12	4366	-87.830805	33.68862	17691	32	4
AL	AL0194	PHENIXCITY-RUSSELLCOPUB.LIBRARY	150117THAVENUE	PHENIXCITY	36867	5140	RUSSELLCOUNTY	3342971139	phenixcitylibrary.com	50085	5.4	276109	49119	61679	49113	23	40319	-85.016045	32.475	50504	22	3
AL	AL0195	SELMA-DALLASCOUNTYPUBLICLIBRARY	1103SELMAAVENUE	SELMA	36703	4498	DALLAS	3348741725	www.selmalibrary.org	43945	21	675320	85980	108290	125520	50	21700	-87.020437	32.40904	42867	33	7
AL	AL0196	TUSCALOOSAPUBLICLIBRARY	1801JACKWARNERPARKWAY	TUSCALOOSA	35401	1027	TUSCALOOSA	2053455820	www.tuscaloosa-library.org	171159	62.87	3523125	195592	425847	631975	133	75209	-87.561937	33.21636	179448	13	7
AL	AL0197	WILCOXCOUNTYLIBRARY	100BROADSTREET	CAMDEN	36726	1702	WILCOX	3346824355	-3	12913	4.65	132956	44616	9401	24240	17	3216	-87.289077	31.99046	12803	43	7
AL	AL0198	MONROECOUNTYPUBLICLIBRARY	121PINEVILLEROAD	MONROEVILLE	36460	1899	MONROE	2517433818	-3	23342	2.37	178138	26155	49351	66009	10	17469	-87.324371	31.52798	22553	33	1
AL	AL0199	CULLMANCOUNTYPUBLICLIBRARYSYSTEM	200CLARKSTREETNE	CULLMAN	35055	2997	CULLMAN	2567341068	www.ccpls.com	80187	14	548766	72851	80950	124145	48	36481	-86.842599	34.17913	81324	42	4
AL	AL0200	H.GRADYBRADSHAW/CHAMBERSCOUNTYLIBRARY	341920THAVENUE	VALLEY	36854	3299	CHAMBERS	3347682161	www.chamberscountylibrary.org	35176	12	784759	95128	94786	103068	45	37303	-85.177663	32.83876	34424	32	3
AL	AL0203	HOKESBLUFF-RUFUSFLOYDPUBLICLIBRARY	3310ALFORDSBENDROAD	HOKESBLUFF	35903	9804	ETOWAH	2564929846	-3	4332	0.96	38990	13550	10912	11659	17	4418	-85.866027	33.99177	103303	23	4
AL	AL0204	RAGLANDPUBLICLIBRARY	738MAINSTREET	RAGLAND	35131	3125	ST.CLAIR	2054722007	-3	2062	0.65	25855	12590	4321	8625	6	2541	-86.153776	33.74267	79837	42	6
AL	AL0206	HAYNEVILLE/LOWNDESCO.PUB.LIBRARY	4WASHINGTONSTREET	HAYNEVILLE	36040	425	LOWNDES	3345482686	-3	6996	2	32446	25794	7666	16300	3	523	-86.579938	32.18395	12644	42	2
AL	AL0208	IDERPUBLICLIBRARY	10808ALABAMAHIGHWAY75	IDER	35981	202	DEKALB	2566572170	-3	709	1.5	10336	11777	4590	6962	3	807	-85.650998	34.72926	68515	42	4
AL	AL0209	EUFAULACARNEGIELIBRARY	217NORTHEUFAULAAVENUE	EUFAULA	36027	1515	BARBOURCOUNTY	3346872337	-3	15786	10	365828	32082	40176	38714	17	11731	-85.145646	31.8951	29309	33	2
AL	AL0210	GRANTPUBLICLIBRARY	5379MAINSTREET	GRANT	35747	401	MARSHALL	2567285128	users.nehp.net/readme/	688	2	31297	16124	7000	8556	3	1560	-86.252925	34.52667	88484	42	4
AL	AL0211	DALEVILLEPUBLICLIBRARY	308DONNELLBOULEVARD	DALEVILLE	36322	2118	DALE	3345039119	-3	6536	2.38	113161	21314	26673	16439	38	10393	-85.706778	31.31651	48292	41	2
AL	AL0216	COURTLANDPUBLICLIBRARY	215COLLEGESTREET	COURTLAND	35618	M	LAWRENCE	2566379988	M	1556	2	40141	13650	5944	5725	3	2000	-87.310339	34.6734	34166	42	5
AL	AL0217	EVAPUBLICLIBRARY	4549HIGHWAY55EAST	EVA	35621	99	MORGAN	2567968638	-3	499	1.25	43297	11106	6659	11172	5	649	-86.772281	34.33376	115959	42	4
AL	AL0218	CROSSVILLEPUBLICLIBRARY	80GAINESSTREET	CROSSVILLE	35962	308	DEKALB	2565282628	www.crossvillealabama.com/library	1459	1	41722	8439	4196	8058	4	897	-85.992847	34.28692	68515	42	4
AL	AL0219	WESTSIDEPUBLICLIBRARY	5151WALNUTGROVEROAD	WALNUTGROVE	35990	100	ETOWAH	2055896699	-3	702	1	33311	7927	3265	1059	4	424	-86.324385	34.0275	103303	42	4
AL	AL0222	ORANGEBEACHPUBLICLIBRARY	26267CANALROAD	ORANGEBEACH	36561	1649	BALDWINCOUNTY	2519812923	www.orangebeachlibrary.org	5519	10	700512	50791	88069	106158	38	31358	-87.57485	30.29205	174439	42	1
AL	AL0223	SATSUMAPUBLICLIBRARY	5466OLDHIGHWAY43	SATSUMA	36572	579	MOBILE	2516790700	satsumalibrary.org	5991	4	144753	15027	7825	5853	14	3845	-88.059806	30.84506	406309	21	1
AL	AL0225	FALKVILLEPUBLICLIBRARY	7NORTH1STAVE.	FALKVILLE	35622	M	MORGAN	2567845822	www.youseemore.com/falkville	1186	1	46622	10797	6800	5893	5	1850	-86.902185	34.33569	115959	42	4
AL	AL0226	SPRINGVILLEPUBLICLIBRARY	6496U.S.HIGHWAY11	SPRINGVILLE	35146	9330	ST.CLAIR	2054672339	-3	3313	1.4	76140	17307	13486	28396	6	2811	-86.447913	33.77647	79837	42	6
AL	AL0227	BRIDGEPORT-LENACAGLEPUBLICLIBRARY	401ALABAMAAVENUE	BRIDGEPORT	35740	M	JACKSON	2564952259	-3	2703	3	48183	8772	7500	5694	4	3154	-85.717395	34.947	53134	32	5
AL	AL0229	WESTBLOCTONPUBLICLIBRARY	62WALTEROWENSDRIVE	WESTBLOCTON	35184	292	BIBB	2059383570	M	1419	0.9	25569	10626	2646	1805	3	641	-87.15748	33.0818	21629	42	6
AL	AL0231	CARBONHILLCITYLIBRARY	215NW2NDSTREET	CARBONHILL	35549	116	WALKER	2059244254	www.youseemore.com/cerl	2050	0.4	15930	7978	1595	4441	2	511	-87.528916	33.88992	68970	43	4
AL	AL0238	OHATCHEEPUBLICLIBRARY	7803ALHIGHWAY77	OHATCHEE	36271	645	CALHOUN	2568924203	apls.state.al.us/libraries/ohatchee	1227	1.05	52266	4980	3708	6554	6	514	-86.041867	33.765	113419	42	3
AL	AL0239	SOMERVILLEPUBLICLIBRARY	192BROADST	SOMERVILLE	35670	4723	MORGAN	2567789779	www.somervillelibrary.org	886	2	32345	10858	3875	10044	3	800	-86.799185	34.47335	115959	42	4
AL	AL0240	CHELSEAPUBLICLIBRARY	11611CHELSEAROAD	CHELSEA	35043	M	SHELBY	2056788455	www.cityofchelsea.com	4200	1.75	72199	13830	16762	42014	4	1688	-86.630698	33.34148	187784	41	6
AL	AL0241	DUTTONPUBLICLIBRARY	23MAINSTREET	DUTTON	35744	6	JACKSON	2562284090	-3	280	1	14116	6695	1681	5232	4	378	-85.918114	34.60393	53134	42	5
AL	AL0242	FORTDEPOSITPUBLICLIBRARY	24SOUTHPOLLARDST	FORTDEPOSIT	36032	290	LOWNDES	3344044400	-3	2997	0	133432	55	5200	15878	7	3470	-86.506416	31.9461	12644	42	2
AL	AL0243	SUMMERDALE-MARJORIEYOUNCESNOOKPUBLICLIBRARY	202WESTBROADWAYSTREET	SUMMERDALE	36580	M	BALDWIN	2519892011	-3	695	3	72548	4836	10580	4866	4	600	-87.701516	30.48717	174439	42	1
AL	AL8004	MT.VERNONPUBLICLIBRARY	1220MILITARYROAD	MT.VERNON	36560	5526	MOBILE	2518299497	M	824	1	25400	7058	3000	1354	5	1000	-88.013534	31.08554	406309	42	1
AL	AL8007	PRICEVILLEPUBLICLIBRARY	103FAYEDRIVE	PRICEVILLE	35603	M	MORGAN	2565840230	M	2381	1	89156	10623	4689	10370	3	439	-86.891988	34.52611	115959	41	4
AL	AL8008	SARDISCITYPUBLICLIBRARY	1310CHURCHSTREET	SARDISCITY	35956	4114	ETOWAH	2565935634	M	2006	2	44216	8565	6525	13887	10	1125	-86.122733	34.1735	103303	41	4
AL	AL8009	GREENPOND-EUNICEKELLYWORTHINGTONPUBLICLIBRARY	321PRESBYTERIANCHURCHROAD	GREENPOND	35074	M	BIBB	2059380008	-3	2021	0	22177	19278	6290	19243	11	3050	-87.123472	33.22606	21629	42	6
AR	AR0001	CENTRALARKANSASLIBRARYSYSTEM	100ROCKSTREET	LITTLEROCK	72201	4698	PULASKI	5019183000	www.cals.org	311250	218	13674921	886202	1815774	2083226	237	801829	-92.266834	34.74707	376797	12	2
AR	AR0002	WASHINGTONCOUNTYLIBRARYSYSTEM	1080WESTCLYDESDALEDRIVE	FAYETTEVILLE	72701	8211	WASHINGTON	4794426253	www.wcls.lib.ar.us	159726	48.65	3102298	254594	784445	1051901	81	155393	-94.174782	36.03416	195803	22	3
AR	AR0003	MARIONCOUNTYLIBRARY	319HIGHWAY14SOUTH	YELLVILLE	72687	510	MARION	8704496015	marcolib.org	24715	4	154148	40000	13492	38536	4	15000	-92.684764	36.22702	16774	43	3
AR	AR0004	SOUTHWESTARKANSASREGIONALLIBRARY	500SOUTHELMSTREET	HOPE	71801	5222	HEMPSTEAD	8707772957	-3	108759	30	915986	330545	284571	344248	108	84282	-93.592132	33.66	22900	42	4
AR	AR0005	MIDARKANSASREGIONALLIBRARYSYSTEM	202EASTTHIRDSTREET	MALVERN	72104	3910	HOTSPRING	5013325441	www.hsc.lib.ar.us	66431	12	989759	167264	123682	165703	47	36135	-92.811958	34.36385	31909	32	4
AR	AR0006	GARLANDCOUNTYLIBRARY	1427MALVERNAVENUE	HOTSPRINGS	71901	6316	GARLAND	5016234161	garland.lib.ar.us/	88068	35	2431814	115353	404520	597918	26	34578	-93.039872	34.49769	97465	13	4
AR	AR0007	WHITERIVERREGIONALLIBRARY	368E.MAINSTREET	BATESVILLE	72501	5605	INDEPENDENCE	8707938814	M	111788	25.85	1880305	169942	229268	408372	61	86534	-91.651539	35.77153	34641	43	1
AR	AR0008	PINEBLUFFJEFFERSONCOUNTYLIBRARYSYSTEM	200E.8THAVENUE	PINEBLUFF	71601	5006	JEFFERSON	8705344802	www.pbjclibrary.org	84278	28	1363710	203314	178724	271512	65	145000	-92.001854	34.22157	78373	13	4
AR	AR0009	CROWLEYRIDGEREGIONALLIBRARY	315WESTOAKAVENUE	JONESBORO	72401	3594	CRAIGHEAD	8709355133	libraryinjonesboro.org	107762	41	2939581	171465	359878	429655	98	236234	-90.70774	35.83382	92640	42	1
AR	AR0010	COLUMBIACOUNTYLIBRARY	220EASTMAINSTREET,BOX668	MAGNOLIA	71753	668	COLUMBIA	8702341991	www.youseemore.com/columbia	25603	10	459056	127041	67336	78107	16	10938	-93.2391	33.26702	24146	33	4
AR	AR0011	FORTSMITHPUBLICLIBRARY	3201ROGERSAVENUE	FORTSMITH	72903	2953	SEBASTIAN	4797830229	www.fortsmithlibrary.org	80268	54	2637488	278857	446700	657358	122	244241	-94.397564	35.37407	122274	13	3
AR	AR0012	ARKANSASRIVERVALLEYREGIONALLIBRARY	501NORTHFRONTSTREET	DARDANELLE	72834	3507	YELL	4792294418	www.arvrls.com	84177	25.5	1730508	139346	194702	326971	54	54315	-93.157796	35.22793	21976	32	2
AR	AR0013	NORTHEASTARKANSASREGIONALLIBRARY	120NORTH12THSTREET	PARAGOULD	72450	4103	GREENE	8702360000	www.greenecountylibrary.com	73135	23	1400810	178245	216634	266358	40	42739	-90.500569	36.05656	40684	32	1
AR	AR0014	SOUTHEASTARKANSASREGIONALLIBRARY	107EASTJACKSON	MONTICELLO	71655	4933	DREW	8703678584	youseemore.com/seark	75273	22.5	903521	175334	249209	104911	81	127096	-91.791062	33.62583	18670	33	4
AR	AR0015	PHILLIPSLEEMONROEREGIONALLIBRARYSYSTEM	623PECANSTREET	HELENA	72342	3298	PHILLIPS	8703387732	www.geocities.com	49279	13	340391	110500	63480	60230	10	23129	-90.588551	34.52835	21603	33	1
AR	AR0016	WILLIAMF.LAMANPUBLICLIBRARY	2801ORANGESTREET	NORTHLITTLEROCK	72114	2296	PULASKI	5017581720	www.laman.net	60433	30	2537293	163207	278203	226333	36	44938	-92.269453	34.78006	376797	13	2
AR	AR0017	FAULKNER-VANBURENREGIONALLIBRARYSYSTEM	1900TYLERSTREET	CONWAY	72032	3240	FAULKNER	5013277482	www.fcl.org	102206	27	1730603	197697	431987	430198	31	56996	-92.449854	35.10282	106823	43	2
AR	AR0019	WHITECOUNTYREGIONALLIBRARYSYSTEM	113EASTPLEASUREAVENUE	SEARCY	72143	7798	WHITE	5012792870	www.wcrls.org	67165	12.5	1074980	119227	176722	321979	34	26716	-91.737335	35.2477	74845	32	2
AR	AR0020	BARTONLIBRARY	200EAST5THSTREET	ELDORADO	71730	3897	UNION	8708635447	www.bartonlibrary.org	45629	16	568739	75872	97000	61506	27	21412	-92.662051	33.22195	43213	42	4
AR	AR0021	POPECOUNTYLIBRARYSYSTEM	116EAST3RDSTREET	RUSSELLVILLE	72801	5198	POPE	4799684368	www.popelibrary.org	54469	25	1100769	121035	160838	288882	25	29638	-93.133382	35.276	59952	42	3
AR	AR0023	SCOTTSEBASTIANREGIONALLIBRARY	18SOUTHADAIR	GREENWOOD	72936	400	SEBASTIAN	4799962856	-3	45799	6	444207	96732	100116	224343	15	24387	-94.256992	35.21232	122274	42	3
AR	AR0024	EASTCENTRALARKANSASREGIONALLIBRARY	410EASTMERRIMAN	WYNNE	72396	2947	CROSS	8702383850	M	28267	15	563988	36331	86659	86667	17	26332	-90.789449	35.22394	18808	32	1
AR	AR0025	WESTMEMPHISPUBLICLIBRARY	213NORTHAVALON	WESTMEMPHIS	72301	2995	CRITTENDEN	8707327590	www.ci.west-memphis.ar.us/library.htm	28259	7	588391	50643	94706	37030	10	18025	-90.193591	35.14822	52554	21	1
AR	AR0026	ASHLEYCOUNTYLIBRARY	211EASTLINCOLNSTREET	HAMBURG	71646	3217	ASHLEY	8708532078	www.crossett.lib.ar.us	24209	9.5	593157	108760	65982	142025	22	19685	-91.796591	33.22579	22233	33	4
AR	AR0027	W.A.BILLINGSLEY/JACKSONCOUNTYLIBRARY	213WALNUTSTREET	NEWPORT	72112	748	JACKSON	8705232952	www.jacksoncolibrary.net	18418	3	224213	69311	11998	33379	4	4688	-91.282603	35.60525	16936	32	1
AR	AR0028	TEXARKANAPUBLICLIBRARY	600WEST3RDSTREET	TEXARKANA	75501	5054	MILLER	9037942149	www.txar-publib.org	61230	12.5	810348	92222	161696	167015	14	29784	-94.048117	33.42043	43226	13	4
AR	AR0030	CONWAYCOUNTYLIBRARY	101WESTCHURCHSTREET	MORRILTON	72110	3399	CONWAY	5013545204	www.youseemore.com/conwaycl/	20336	7	305165	26258	41500	36286	9	6322	-92.745415	35.15131	20755	32	2
AR	AR0031	LAWRENCECOUNTYLIBRARY	1315WESTMAIN	WALNUTRIDGE	72476	1430	LAWRENCE	8708863222	M	17774	6	359076	58204	81286	97092	27	15947	-90.969075	36.0747	16861	32	1
AR	AR0037	FORRESTCITYPUBLICLIBRARY	421SOUTHWASHINGTONSTREET	FORRESTCITY	72335	3839	ST.FRANCIS	8706335646	www.forrestcitylibrary.org	14774	4	194918	22333	16750	22998	7	5272	-90.784108	35.00663	26336	32	1
AR	AR0038	BENTONVILLEPUBLICLIBRARY	125WESTCENTRAL	BENTONVILLE	72712	5298	BENTON	4792713192	www.bentonvillelibrary.org	29746	16.25	1220213	68399	264848	314368	30	50649	-94.209252	36.3723	209791	13	3
AR	AR0039	BAXTERCOUNTYLIBRARY	424WESTSEVENTH	MOUNTAINHOME	72653	4393	BAXTER	8704253598	www.baxtercountylibrary.org	38386	16	705929	76626	147539	257431	17	33963	-92.390041	36.33546	42115	33	1
AR	AR0040	MISSISSIPPI/CRITTENDENREGIONALLIBRARY	200NORTH5THSTREET	BLYTHEVILLE	72315	2712	MISSISSIPPI	8707622431	www.mclibrary.net	75179	27	1237485	268032	190719	153929	65	76365	-89.90804	35.92855	46808	42	1
AR	AR0041	LONOKE/PRAIRIECOUNTYREGIONALLIBRARY	204EAST2NDSTREET	LONOKE	72086	2858	LONOKE	5016766635	www.lpregional.lib.ar.us	62367	19	1080168	205150	68020	135038	34	17251	-91.89893	34.78526	65233	32	1
AR	AR0042	ARKANSASCOUNTYLIBRARY	2002S.BUERKLESTREET	STUTTGART	72160	6508	ARKANSAS	8706731966	www.stuttgartpubliclibrary.org	20749	11.5	425907	116556	39675	65570	17	4596	-91.558385	34.48	19236	32	1
AR	AR0043	TRUMANNPUBLICLIBRARY	1300WESTMAIN	TRUMANN	72472	73	POINSETT	8704837744	-3	6889	2	38551	11889	10927	12327	3	3371	-90.524005	35.67132	24721	32	1
AR	AR0044	BELLAVISTAPUBLICLIBRARY	11DICKENSPLACE	BELLAVISTA	72714	4603	BENTON	4798551753	www.bvpl.org	16582	1.8	295332	39362	68981	71468	8	7505	-94.241469	36.47501	209791	41	3
AR	AR0046	SALINECOUNTYLIBRARY	1800SMITHERSDRIVE	BENTON	72015	3108	SALINE	5017784766	www.saline.lib.ar.us	83529	28	2327787	140880	285218	600457	56	46098	-92.570288	34.58174	98209	21	2
AR	AR0047	ROGERSPUBLICLIBRARY	711S.DIXIELANDRD.	ROGERS	72758	4033	BENTON	4796211152	library.rpl.lib.ar.us	48829	31.33	1722652	111899	277527	500845	62	42469	-94.143835	36.32574	209791	13	3
AR	AR0048	CRAWFORDCOUNTYLIBRARYSYSTEM	111NORTH12THSTREET	VANBUREN	72956	4503	CRAWFORD	4794713226	www.crawfordcountylib.org	54247	18	1029644	132063	195986	216147	30	41928	-94.347029	35.4379	59682	42	3
AR	AR0049	CARROLLANDMADISONLIBRARYSYSTEM	106SPRINGSTREET	BERRYVILLE	72616	3846	CARROLL	8704235300	www.carrollmadisonlibraries.org	39600	14	965277	112171	165500	258764	30	55605	-93.569619	36.36676	27557	42	3
AR	AR0050	BOONECOUNTYLIBRARY	221WESTSTEPHENSONAVENUE	HARRISON	72601	4225	BOONE	8707415913	bcl.state.ar.us	33948	14	545166	90953	194281	191203	18	29577	-93.108923	36.2298	36881	33	3
AR	AR0051	NEWTONCOUNTY	HC31BOX8	JASPER	72641	9401	NEWTON	8704462983	newtoncountylibrary.com	8608	2.4	106616	18074	26105	33379	4	6016	-93.190418	36.00706	8298	43	3
AR	AR0060	CLARKCOUNTYLIBRARY	609CADDOSTREET	ARKADELPHIA	71923	609	CLARK	8702462271	www.clark-library.com	23546	4	248844	79246	20000	36585	6	8100	-93.053673	34.12094	23888	32	4
AR	AR0061	LAFAYETTECOUNTYLIBRARY	219E.THIRDSTREET	LEWISVILLE	71845	8075	LAFAYETTE	8709214757	www.youseemore.com/columbia	8027	4	101030	21127	20875	15742	11	8078	-93.575838	33.35721	7705	42	4
AR	AR0062	MONTGOMERYCOUNTYLIBRARY	145AWHITTINGDONSTREET	MOUNTIDA	71957	189	MONTGOMERY	8708673812	-3	9245	1	27463	13087	14092	19603	2	2114	-93.631878	34.55628	9047	43	4
AR	AR0063	PUBLICLIBRARYOFCAMDEN&OUACHITACOUNTY	120HARRISONAVE.S.W.	CAMDEN	71701	3968	OUACHITA	8708365083	-3	28790	3	174076	71043	27969	48506	10	12062	-92.831084	33.5847	25770	43	4
AR	AR0064	CALHOUNCOUNTYLIBRARY	1092NDSTREET	HAMPTON	71744	1162	CALHOUN	8707984492	-3	5559	2	141832	19040	20359	27465	7	6090	-92.471747	33.538	5435	43	4
AR	AR0066	FAYETTEVILLEPUBLICLIBRARY	401W.MOUNTAINSTREET	FAYETTEVILLE	72701	4296	WASHINGTON	4798567000	www.faylib.org	58047	44.55	3825427	204996	580361	1013630	92	99248	-94.164476	36.06197	195803	13	3
AR	AR0068	PEARIDGECOMMUNITYLIBRARY	161EASTPICKENS	PEARIDGE	72751	9	BENTON	4794518442	-3	2346	0	53826	12261	9363	12429	5	2716	-94.114631	36.4538	209791	31	3
AR	AR0069	GRAVETTEPUBLICLIBRARY	407CHARLOTTESTREETSE	GRAVETTE	72736	9363	BENTON	4797876955	www.cityofgravette-ar.gov/gravettelibrary/library-index.html	1810	3	95090	15163	22224	14106	8	14816	-94.449685	36.41945	209791	42	3
AR	AR0070	JIMG.FERGUSONSEARCYCOUNTYLIBRARY	202EASTMAIN	MARSHALL	72650	9502	SEARCY	8704482420	www.searcycountylibrary.com	8261	5	210286	35964	20239	38771	12	6402	-92.629287	35.9089	8048	43	1
AZ	AZ0001	APACHECOUNTYLIBRARYDISTRICTOFFICE	245WEST1STSOUTH	ST.JOHNS	85936	M	APACHE	9283373067	WWW.CO.APACHE.AZ.US/DEPARTMENTS/LIBRARIES/MAIN.HTM	23071	19.17	1331183	50856	65855	55812	40	23706	-109.368544	34.50544	70207	43	1
AZ	AZ0009	COCHISECOUNTYLIBRARYDISTRICT	100CLAWSONSTREET	BISBEE	85603	99	COCHISE	5204328930	COCHISE.LIB.AZ.US	55583	12.4	1233138	101629	38334	69525	20	14148	-109.876843	31.411	129006	43	8
AZ	AZ0025	CLIFTONPUBLICLIBRARY	505SCHOOLSTREET	CLIFTON	85533	1226	GREENLEE	9288652461	-3	2497	1.4	70817	17459	6074	6199	5	1677	-109.2541	33.0122	8002	42	1
AZ	AZ0026	SAFFORDCITY-GRAHAMCOUNTYLIBRARY	808S.7THAVENUE	SAFFORD	85546	2944	GRAHAM	9283483202	WWW.SAFFORDLIBRARY.ORG	21254	9	799140	43953	112077	103428	31	31663	-109.715033	32.83132	36452	33	1
AZ	AZ0027	PARKERPUBLICLIBRARY	1001S.NAVAJOAVE	PARKER	85344	4999	LAPAZ	9286692622	WWW.PARKERPUBLICLIBRARYAZ.ORG	3401	3	225924	16053	98066	42719	14	70333	-114.295295	34.147	20086	33	7
AZ	AZ0028	MARICOPACOUNTYLIBRARYDISTRICTOFFICE	2700NCENTRALAVESTE700	PHOENIX	85004	700	MARICOPA	6026523030	MCLDAZ.ORG	714672	228	24299656	680385	3054746	5966051	394	778491	-112.073902	33.47792	3954598	21	4
AZ	AZ0029	SAMGARCIAWESTERNAVENUELIBRARY	495E.WESTERNAVE	AVONDALE	85323	1851	MARICOPA	6233332611	WWW.AVONDALE.ORG/LIBRARY	75256	10	544270	27023	67241	95108	18	27552	-112.344851	33.43532	3954598	23	7
AZ	AZ0030	BUCKEYEPUBLICLIBRARY	310NORTH6THSTREET	BUCKEYE	85326	2439	MARICOPA	6233496312	WWW.BUCKEYEAZ.GOV/LIBRARY	40467	9.5	678034	25244	155630	105211	15	32942	-112.583512	33.3724	3954598	32	2
AZ	AZ0031	CHANDLERPUBLICLIBRARY	22SOUTHDELAWARE	CHANDLER	85225	M	MARICOPA	4807822817	CHANDLERLIBRARY.ORG	241205	80.1	7406526	412121	1408422	2349232	271	404156	-111.837488	33.30307	3954598	21	6
AZ	AZ0033	GLENDALEPUBLICLIBRARY	5959WBROWNST	GLENDALE	85302	1248	MARICOPA	6239303562	WWW.GLENDALEAZ.COM/LIBRARY	246076	86.76	9012853	258383	1253644	2610486	115	311718	-112.188001	33.57827	3954598	21	2
AZ	AZ0034	CITYOFMESAMAINLIBRARY	64E.FIRSTST.	MESA	85201	6768	MARICOPA	4806442712	WWW.MESALIBRARY.ORG	456344	121.6	9352136	548918	1165451	2155035	128	252911	-111.829872	33.41727	3954598	11	6
AZ	AZ0035	PHOENIXPUBLICLIBRARY	1221N.CENTRALAVENUE	PHOENIX	85004	1820	MARICOPA	6022626157	WWW.PHOENIXPUBLICLIBRARY.ORG	1538568	443.4	37903174	1358074	5167958	15835086	398	1229499	-112.073691	33.46253	3954598	11	4
AZ	AZ0036	SCOTTSDALEPUBLICLIBRARY	3839N.DRINKWATERBLVD.	SCOTTSDALE	85251	4467	MARICOPA	4803127039	LIBRARY.SCOTTSDALEAZ.GOV	240126	139.78	11322777	535784	1432652	2999895	170	420552	-111.921671	33.49168	3954598	12	5
AZ	AZ0038	TEMPEPUBLICLIBRARY	3500SOUTHRURALROAD	TEMPE	85282	5482	MARICOPA	4803505551	WWW.TEMPE.GOV/LIBRARY	167871	49.95	5140120	418088	1030260	1257336	81	173523	-111.926402	33.3902	3954598	12	5
AZ	AZ0039	TOLLESONPUBLICLIBRARY	9555W.VANBUREN	TOLLESON	85353	2816	MARICOPA	6239367111	WWW.TOLLESONAZ.ORG	6680	4.5	333861	19676	30815	37657	11	9526	-112.265031	33.45026	3954598	21	7
AZ	AZ0040	WICKENBURGPUBLICLIBRARY	164E.APACHEST.	WICKENBURG	85390	2457	MARICOPA	9286842665	CI.WICKENBURG.AZ.US/LIBRARY	6380	5.5	338266	35811	129600	136476	9	11166	-112.729786	33.97024	3954598	32	2
AZ	AZ0042	MOHAVECOUNTYLIBRARYDISTRICT	3269N.BURBANKSTREET	KINGMAN	86401	7000	MOHAVE	9286925717	MOHAVECOUNTYLIBRARY.INFO/	202378	86	8133046	194996	680890	644363	128	155134	-114.029171	35.2228	196281	33	2
AZ	AZ0048	WHITERIVERPUBLICLIBRARY	100E.WALNUTST.	WHITERIVER	85941	370	NAVAJO	9283384884	WWW.NAVAJOCOUNTYLIBRARIES.ORG	12429	6	237161	24713	33140	8212	21	12118	-109.976208	33.8252	112757	33	1
AZ	AZ0050	PINALCOUNTYLIBRARYDISTRICT	92W.BUTTEAVE.	FLORENCE	85232	2974	PINAL	5208666457	PINALCOUNTYAZ.GOV/DEPARTMENTS/LIBRARY/PAGES/HOME.ASPX	151554	7	1774879	37606	36752	52615	19	15746	-111.388533	33.03137	327301	32	1
AZ	AZ0064	PIMACOUNTYPUBLICLIBRARY	101N.STONEAVENUE	TUCSON	85701	1520	PIMA	5205945601	WWW.LIBRARY.PIMA.GOV	949187	430.6	39099324	1033575	3724363	5339034	431	849899	-110.971512	32.2235	1012018	11	7
AZ	AZ0065	NOGALES/SANTACRUZCOUNTYPUBLICLIBRARY	518N.GRANDAVE.	NOGALES	85621	2711	SANTACRUZ	5202855710	NOGALES-SANTACRUZ.LIB.AZ.US	45981	7.5	613566	62720	100415	137215	38	28514	-110.934466	31.34173	42923	33	7
AZ	AZ0066	PATAGONIAPUBLICLIBRARY	346DUQUESNEAVE	PATAGONIA	85624	415	SANTACRUZ	5203942010	WWW.PATAGONIAPUBLICLIBRARY.ORG	926	1.75	92451	15200	18572	20518	8	9827	-110.756071	31.53752	42923	43	8
AZ	AZ0067	YAVAPAICOUNTYLIBRARYDISTRICT	172EASTMERRITTSTREETSUITEE	PRESCOTT	86301	2029	YAVAPAI	9287713191	WWW.YAVAPAILIBRARY.ORG	93511	17.29	3023454	87885	102232	154747	45	43888	-112.467631	34.55496	215503	42	1
AZ	AZ0082	YUMACOUNTYLIBRARYDISTRICT	350THIRDAVE	YUMA	85364	2263	YUMA	9287821871	WWW.YUMALIBRARY.ORG	195365	60.06	7097835	245844	697001	547275	142	161338	-114.623358	32.72067	194322	31	7
AZ	AZ0084	DUNCANPUBLICLIBRARY	122N.HWY.75	DUNCAN	85534	115	GREENLEE	9283592094	-3	818	0.75	33550	10982	8730	10734	5	2678	-109.103492	32.72229	8002	43	1
AZ	AZ0086	DESERTFOOTHILLSLIBRARY	38443N.SCHOOLHOUSEROAD	CAVECREEK	85331	4070	MARICOPA	4804882286	WWW.DESERTFOOTHILLSLIBRARY.ORG	8899	5.23	378459	48990	50000	77180	9	1500	-111.943232	33.83497	3954598	41	3
AZ	AZ0088	PEORIAPUBLICLIBRARYSYSTEM	8463W.MONROEST.	PEORIA	85345	6560	MARICOPA	6237737557	M	151541	34.21	4237250	178550	549274	1044623	178	108894	-112.240999	33.57726	3954598	21	2
AZ	AZ0092	YOUNGTOWNPUBLICLIBRARY	12035CLUBHOUSESQUARE	YOUNGTOWN	85363	1227	MARICOPA	6239743401	YOUNGTOWNAZ.ORG	6322	2.5	134028	7200	14765	19568	4	3640	-112.302041	33.60386	3954598	21	2
AZ	AZ0100	OFFICEOFNAVAJONATIONLIBRARY	HIGHWAY264POSTOFFICELOOP	WINDOWROCK	86515	9040	APACHE	9288717303	WWW.NNLIB.ORG	104565	10	369873	72417	60272	11835	18	32633	-109.054436	35.67781	70207	33	1
AZ	AZ0102	GILACOUNTYLIBRARYDISTRICT	1400EASTASH	GLOBE	85501	1483	GILA	9284028770	CATALOG.GILA.LIB.AZ.US	19154	3	366005	1187	1300	530	0	0	-110.774408	33.39539	52166	33	1
AZ	AZ0103	COLORADORIVERINDIANTRIBESLIBRARY/ARCHIVES	26600MOHAVEROAD	PARKER	85344	9704	LAPAZ	9286699211	WWW.CRITLIBRARY.COM	7466	4	152480	12225	7000	5000	5	6550	-114.46851	33.84826	20086	43	7
AZ	AZ0104	QUARTZSITEPUBLICLIBRARY	465NORTHPLYMOUTHAVE	QUARTZSITE	85346	2812	LAPAZ	9289276593	WWW.QLIB.ORG	3671	5	204829	33794	88893	54492	18	21730	-114.216917	33.66644	20086	33	7
AZ	AZ0106	PIMAPUBLICLIBRARY	50SOUTH200WEST	PIMA	85543	489	GRAHAM	9284852822	WWW.PIMALIBRARY.ORG	2233	1	56307	10089	21083	15785	5	1984	-109.831567	32.89534	36452	42	1
AZ	AZ0107	NAVAJOCOUNTYLIBRARYDISTRICT	121W.BUFFALO	HOLBROOK	86025	2837	NAVAJO	9285244745	WWW.NAVAJOCOUNTYLIBRARIES.ORG	30891	3.6	672404	36462	7256	27888	35	7385	-110.158459	34.9038	112757	43	1
AZ	AZ0109	OROVALLEYPUBLICLIBRARY	1305WNARANJADRIVE	OROVALLEY	85737	9762	PIMA	5202295302	WWW.OROVALLEYLIB.COM	42551	19.3	1302664	78922	196905	363228	56	2289	-110.994025	32.40977	1012018	21	8
AZ	AZ0110	BENSONPUBLICLIBRARY	300S.HUACHUCA	BENSON	85602	6650	COCHISE	5205869535	COCHISE.LIB.AZ.US	4992	4.55	241677	36389	59757	74928	7	20520	-110.296615	31.96586	129006	32	8
AZ	AZ0111	COPPERQUEENLIBRARY	6MAINSTREET	BISBEE	85603	9901	COCHISE	5204324232	COCHISE.LIB.AZ.US/BISBEE/BISBEE.HTM	6310	4.25	213552	33445	41335	50429	12	12664	-109.915161	31.44161	129006	33	8
AZ	AZ0112	DOUGLASPUBLICLIBRARY	56010THSTREET	DOUGLAS	85607	2010	COCHISE	5203643851	M	18152	7.5	430459	48992	95932	94955	23	44541	-109.553573	31.34449	129006	33	8
AZ	AZ0113	HUACHUCACITYPUBLICLIBRARY	506NGONZALESBLVD	HUACHUCACITY	85616	9610	COCHISE	5204561063	M	1832	3	64825	20800	22363	8105	12	4707	-110.335361	31.63156	129006	41	8
AZ	AZ0114	SIERRAVISTAPUBLICLIBRARY	2600EASTTACOMASTREET	SIERRAVISTA	85635	1352	COCHISE	5204584239	WWW.CI.SIERRA-VISTA.AZ.US/SVLIBRARY	44736	16.75	1260447	84388	211909	268840	28	42489	-110.282606	31.56377	129006	33	8
AZ	AZ0115	TOMBSTONEPUBLICLIBRARY	CORNEROF4THANDTOUGHNUT	TOMBSTONE	85638	218	COCHISE	5204573612	cochise.lib.az.us/ctombstone.html	1682	2	66842	15357	16534	21289	4	5505	-110.044067	31.63612	129006	43	8
AZ	AZ0116	ELSIES.HOGANCOMMUNITYLIBRARY	207W.MALEY	WILLCOX	85643	2150	COCHISE	5203844271	COCHISE.LIB.AZ.US/CWILLCOX.HTML	3913	5	288986	24876	37951	36440	19	11136	-109.833846	32.25322	129006	33	8
AZ	AZ0117	APACHEJUNCTIONPUBLICLIBRARY	1177N.IDAHORD.	APACHEJUNCTION	85219	2806	PINAL	4804748557	WWW.AJPL.ORG	37263	27.24	2025368	85732	310716	578126	68	78118	-111.546074	33.42644	327301	41	6
AZ	AZ0118	CASAGRANDEPUBLICLIBRARY	449N.DRYLAKE	CASAGRANDE	85222	4122	PINAL	5204218710	CGLIBRARY.ORG	42422	13.5	946300	66086	272000	229446	38	92080	-111.750105	32.87685	327301	32	1
AZ	AZ0119	VENITOGARCIALIBRARY	MAINSTREET	SELLS	85634	M	PIMA	5203835756	WWW.YOUSEEMORE.COM/VENITOGARCIA	10787	16	71000	10912	10000	977	27	20880	-112.071346	32.0825	1012018	43	7
AZ	AZ0122	COCOPAHTRIBALLIBRARY	14250S.AVENUEI	SOMERTON	85350	M	YUMA	9286278026	-3	1025	1	18960	175	506	33	1	100	-114.701223	32.58199	194322	31	7
AZ	AZ0123	SALTRIVERTRIBALLIBRARY	1880N.LONGMORE	SCOTTSDALE	85256	4019	MARICOPA	4808508339	-3	6405	3	139784	21897	30427	30962	9	7726	-111.865523	33.4687	3954598	41	5
AZ	AZ0124	GLOBEPUBLICLIBRARY	339S.BROADST.	GLOBE	85501	2607	GILA	9284256111	-3	7897	4.54	233378	19016	37659	40836	6	11960	-110.785546	33.39363	52166	33	1
AZ	AZ0125	HAYDENPUBLICLIBRARY	219E.5THST.	HAYDEN	85235	99	GILA	5203567031	-3	843	2.5	96608	17823	9477	9600	8	4142	-110.784067	33.00588	52166	43	1
AZ	AZ0126	MIAMIMEMORIALPUBLICLIBRARY	1052ADONISAVE.	MIAMI	85539	1052	GILA	9284732621	-3	1904	2	82000	44616	17680	8311	9	3840	-110.86934	33.39686	52166	33	1
AZ	AZ0127	PAYSONPUBLICLIBRARY	328N.MCLANERD.	PAYSON	85541	5334	GILA	9284749260	M	16742	7.5	502466	115000	560000	151744	13	15342	-111.331754	34.24382	52166	33	1
AZ	AZ0128	ISABELLEHUNTMEMORIALPUBLICLIBRARY	6124W.RANDALLPLACE	PINE	85544	229	GILA	9284763678	PINELIBRARY.INPAYSON.COM	2959	4	137117	13890	27000	28648	6	4255	-111.463819	34.38797	52166	43	1
AZ	AZ0129	SANCARLOSPUBLICLIBRARY	89SANCARLOSAVE.	SANCARLOS	85550	545	GILA	9284752611	M	9385	1	62400	6970	36365	2395	7	13172	-109.858421	33.3271	52166	43	1
AZ	AZ0130	TONTOBASINPUBLICLIBRARY	415OLDHWY188	TONTOBASIN	85553	368	GILA	9284792355	TONTOBASINLIBRARY.COM	840	1.67	55900	15549	26000	29822	7	6240	-111.314663	33.877	52166	43	1
AZ	AZ0131	YOUNGPUBLICLIBRARY	150COMMUNITYCENTERROAD	YOUNG	85554	150	GILA	9284623588	-3	561	1.25	53370	19234	6860	6050	3	40	-110.93129	34.11091	52166	43	1
AZ	AZ0133	COOLIDGEPUBLICLIBRARY	160W.CENTRALAVENUE	COOLIDGE	85228	4406	PINAL	5207236030	CO.PINAL.AZ.US/LIBRARY/COOLIDGEANDWWW.COOLIDGEAZ.COM	11721	5	450286	26597	62027	43906	11	16693	-111.516871	32.9776	327301	32	1
AZ	AZ0134	ELOYPUBLICLIBRARY	100EAST7THSTREET	ELOY	85231	2567	PINAL	5204663814	M	13953	4.48	257334	26597	23550	16381	12	9000	-111.554753	32.75646	327301	32	1
AZ	AZ0135	FLORENCECOMMUNITYLIBRARY	1000S.WILLOWSTREET	FLORENCE	85232	985	PINAL	5208689471	library.co.pinal.az.us/ipac20/ipac.jsp?profile=flore#focus	21913	6.1	347518	21600	119564	77756	24	21603	-111.389338	33.02454	327301	41	1
AZ	AZ0136	KEARNYPUBLICLIBRARY	912-ATILBURYRD.	KEARNY	85237	M	PINAL	5203635861	-3	2282	1.75	86810	16278	10044	15256	8	4561	-110.914654	33.0544	327301	43	1
AZ	AZ0137	MAMMOTHPUBLICLIBRARY	125N.CLARKST.	MAMMOTH	85618	549	PINAL	5204872026	CO.PINAL.AZ.US/LIBRARY	1783	0.8	47401	5111	5200	5502	5	4488	-110.640748	32.72124	327301	42	1
AZ	AZ0138	MARICOPAPUBLICLIBRARY	44240WESTMARICOPA/CASAGRANDEHWY	MARICOPA	85239	M	PINAL	5203166966	M	32157	4	502911	16045	37590	75503	6	12600	-112.043824	33.05697	327301	42	7
AZ	AZ0141	SUPERIORPUBLICLIBRARY	99KELLNERAVE.	SUPERIOR	85273	2612	PINAL	5206892327	-3	3369	2	116821	12996	26500	12498	6	5936	-111.097496	33.29453	327301	32	1
AZ	AZ0145	CAMPVERDECOMMUNITYLIBRARY	130BLACKBRIDGELOOPRD.	CAMPVERDE	86322	M	YAVAPAI	9285673414	WWW.CVAZ.ORG/LIBRARY	11519	5.25	366289	35689	49444	73974	4	8055	-111.854544	34.57096	215503	43	1
AZ	AZ0146	CHINOVALLEYPUBLICLIBRARY	1020W.PALOMINOROAD	CHINOVALLEY	86323	1188	YAVAPAI	9286362687	M	13098	8	498106	48729	75971	131697	6	15800	-112.465437	34.77344	215503	41	1
AZ	AZ0147	CLARKMEMORIAL	39NORTHNINTHSTREET	CLARKDALE	86324	M	YAVAPAI	9286349760	WWW.CLARKDALE.AZ.US/LIBRARY.HTML	3986	1.38	57159	9100	8320	6190	5	3165	-112.057562	34.77186	215503	32	1
AZ	AZ0150	COTTONWOODPUBLICLIBRARY	100S.6THST.	COTTONWOOD	86326	4238	YAVAPAI	9286347559	WWW.CTWPL.INFO	11130	11.5	764410	81755	121264	327324	12	28038	-112.022764	34.73656	215503	32	1
AZ	AZ0152	JEROMEPUBLIC	600CLARKST.	JEROME	86331	M	YAVAPAI	9286390574	WWW.YAVAPAILIBRARY.ORG/JEROME.HTM	329	1.1	50268	10521	10660	13470	5	9776	-112.114836	34.75034	215503	42	1
AZ	AZ0154	PRESCOTTVALLEYPUBLICLIBRARY	7501CIVICCIRCLE	PRESCOTTVALLEY	86314	2263	YAVAPAI	9287593041	WWW.PVLIB.NET	38357	17	1489016	84000	157139	285092	21	37286	-112.33636	34.59479	215503	23	1
AZ	AZ0155	SEDONAPUBLICLIBRARY	3250WHITEBEARROAD	SEDONA	86336	4337	YAVAPAI	9282827714	WWW.SEDONALIBRARY.ORG	11134	14	1346666	66276	206069	246458	22	64990	-111.81698	34.86237	215503	41	1
AZ	AZ0158	PRESCOTTPUBLICLIBRARY	215EGOODWINST	PRESCOTT	86303	3998	YAVAPAI	9287771519	WWW.PRESCOTTLIBRARY.INFO	43217	31.3	2482285	122933	477785	758787	61	141103	-112.467036	34.53993	215503	13	1
AZ	AZ0160	HOLBROOKPUBLICLIBRARY	403PARKST	HOLBROOK	86025	2501	NAVAJO	9285243732	WWW.NAVAJOCO.LIB.AZ.US	5599	5	206967	45524	39730	45137	10	5931	-110.154925	34.90696	112757	41	1
AZ	AZ0161	LARSONMEMORIALPUBLICLIBRARY	1595JOHNSONDR.	LAKESIDE	85929	M	NAVAJO	9283680624	WWW.CI.PINETOP-LAKESIDE.AZ.US	4769	5	258650	26174	43857	70227	8	13882	-109.972392	34.1504	112757	33	1
AZ	AZ0162	SHOWLOWPUBLICLIBRARY	180N9THSTREET	SHOWLOW	85901	5007	NAVAJO	9285324073	CI.SHOW-LOW.AZ.US/DEPARTMENTS/LIBRARY/	11473	9.43	576295	38263	177388	149528	24	32326	-110.032019	34.25135	112757	33	1
AZ	AZ0163	SNOWFLAKE-TAYLORPUBLICLIBRARY	418SOUTH4THWEST	SNOWFLAKE	85937	5024	NAVAJO	9285367103	WWW.CI.SNOWFLAKE.AZ.US/RES-LIBRARY.HTM	9546	4.5	173800	37224	63200	68883	9	7342	-110.083928	34.50833	112757	33	1
AZ	AZ0164	WINSLOWPUBLICLIBRARY	420W.GILMORESTREET	WINSLOW	86047	2520	NAVAJO	9282894982	WWW.CI.WINSLOW.AZ.US	10135	4.25	249590	27951	43035	41371	4	8192	-110.698265	35.0335	112757	33	1
AZ	AZ0165	FREDONIAPUBLICLIBRARY	130N.MAIN	FREDONIA	86022	130	COCONINO	9286437137	-3	1135	1.4	48983	16609	11167	6314	6	3327	-112.526351	36.95141	128558	42	1
AZ	AZ0167	PAGEPUBLICLIBRARY	479S.LAKEPOWELLBLVD.	PAGE	86040	1776	COCONINO	9286454272	YOUSEEMORE.COM/PAGE	7307	7	521321	59808	139238	80456	33	94518	-111.459442	36.91025	128558	33	1
AZ	AZ0168	WILLIAMSPUBLICLIBRARY	113S.1STST.	WILLIAMS	86046	2596	COCONINO	9286352263	-3	3146	1.2	81930	13350	13396	14583	17	7148	-112.186748	35.24981	128558	43	1
AZ	AZ0169	FLAGSTAFFCITY-COCONINOCOUNTYPUBLICLIBRARY	300WESTASPEN	FLAGSTAFF	86001	5304	COCONINO	9287797673	FLAGSTAFFPUBLICLIBRARY.ORG	96523	48.5	3244567	260243	761433	954693	107	252704	-111.652289	35.19959	128558	13	1
AZ	AZ0170	BONITALIBRARY	18008SFT.GRANTRD.	WILLCOX	85643	7500	GRAHAM	9288283363	M	8529	2	0	5227	13562	3043	23	3114	-109.97358	32.56169	36452	43	1
AZ	AZ0172	MORENCICOMMUNITYLIBRARY	346PLAZAMORENCI	MORENCI	85540	1060	GREENLEE	9288652775	M	1879	3	72017	15371	7307	13598	5	3715	-109.320352	33.049	8002	33	1
AZ	AZ0173	THEEDWARDMCELWAINMEMORIALLIBRARY	460HUALAPAIWAY	PEACHSPRINGS	86434	179	MOHAVE	9287692200	-3	600	0	22996	5085	3858	4137	2	1186	-113.420303	35.5336	196281	43	2
AZ	AZ0174	KAIBABPAIUTETRIBALLIBRARY	1NORTHPIPESPRINGSROAD	FREDONIA	86022	8602	MOHAVE	9286436004	-3	196	0	7512	1661	1260	1352	1	387	-112.526377	36.94998	196281	42	1
AZ	AZ0175	FT.MCDOWELLYAVAPAINATIONTRIBALLIBRARY	16708N.FTMCDOWELLROAD	FT.MCDOWELL	85264	7779	MARICOPA	4807897850	WWW.FTMCDOWELLTRIBALLIBRARY.ORG	824	2	37000	13331	2250	3523	18	3600	-111.664797	33.6081	3954598	41	5
AZ	AZ0176	IRAHAYESMEMORIALLIBRARY	94NORTHCHURCHSTREET	SACATON	85247	97	PINAL	5205623225	-3	11257	2	202924	8000	5200	3840	6	3288	-111.875344	33.2181	327301	21	6
AZ	AZ0177	LAPAZCOUNTYSERVICES	1001S.NAVAJOAVE	PARKER	85344	4999	LAPAZ	9286692622	WWW.PARKERPUBLICLIBRARYAZ.ORG	6991	2.25	178978	17460	33311	34566	13	7098	-114.295295	34.147	20086	43	7
CA	CA0001	ALAMEDACOUNTYLIBRARY	2450STEVENSONBLVD.	FREMONT	94538	2326	ALAMEDA	5107451500	aclibrary.org	535422	196.57	23501379	939627	4266895	5637420	198	380825	-121.971933	37.5513	1474368	21	13
CA	CA0002	ALAMEDAFREELIBRARY	1550OAKST	ALAMEDA	94501	4411	ALAMEDA	5107477747	www.alamedafree.org	75823	44.5	3104514	210073	555813	572541	79	122146	-122.242695	37.76684	1474368	21	13
CA	CA0003	ALHAMBRAPUBLICLIBRARY	101S.FIRSTST.	ALHAMBRA	91801	3488	LOSANGELES	6265705008	alhambralibrary.org	89259	32.9	2449188	156319	360799	358744	19	39025	-118.126517	34.09264	9862049	21	29
CA	CA0004	ALPINECOUNTYLIBRARY/ARCHIVES	270LARAMIEST.	MARKLEEVILLE	96120	187	ALPINE	5306942120	www.alpinecountyca.gov/departments/library	1222	3.5	266066	10832	19107	20802	5	2871	-119.777916	38.69321	1061	42	3
CA	CA0005	ALTADENALIBRARYDISTRICT	600E.MARIPOSAST.	ALTADENA	91001	2211	LOSANGELES	6267982950	www.altadenalibrary.org	55209	31.75	2481395	109981	212399	197390	32	83761	-118.137304	34.18962	9862049	21	29
CA	CA0006	AMADORCOUNTYLIBRARY	530SUTTERST.	JACKSON	95642	2379	AMADOR	2092236400	M	37943	14	970887	88421	84476	83613	18	68928	-120.781313	38.3528	38238	32	3
CA	CA0007	ANAHEIMPUBLICLIBRARY	500W.BROADWAY	ANAHEIM	92805	3699	ORANGE	7147651810	anaheim.net/library	346823	119.96	11759521	536292	1522883	1788731	259	318267	-117.918929	33.83192	3010759	11	47
CA	CA0008	ARCADIAPUBLICLIBRARY	20W.DUARTEROAD	ARCADIA	91006	6999	LOSANGELES	6268215567	library.ci.arcadia.ca.us	56491	28.25	3070761	198275	602450	712482	58	107697	-118.031974	34.12935	9862049	13	26
CA	CA0009	PLACERCOUNTYLIBRARY	350NEVADAST.	AUBURN	95603	3789	PLACER	5308864550	www.placer.ca.gov/library	184489	50.63	4725713	318957	630345	1260690	47	55226	-121.082418	38.90643	341945	21	4
CA	CA0010	AZUSACITYLIBRARY	729N.DALTONAVE.	AZUSA	91702	2550	LOSANGELES	6268125232	www.ci.azusa.ca.us/library/index.html	48743	16.75	1337272	122177	145237	106421	9	21131	-117.904993	34.13428	9862049	21	32
CA	CA0011	BERKELEYPUBLICLIBRARY	2090KITTREDGEST.	BERKELEY	94704	1427	ALAMEDA	5109816100	www.berkeleypubliclibrary.org/	106697	120.35	13922881	496868	1524973	1745605	72	185018	-122.268259	37.86843	1474368	12	9
CA	CA0012	BEVERLYHILLSPUBLICLIBRARY	444N.REXFORDDR.	BEVERLYHILLS	90210	4877	LOSANGELES	3102882220	www.bhpl.org	35983	76.5	9274696	383754	558853	551958	28	180639	-118.399722	34.07287	9862049	21	30
CA	CA0013	BRAWLEYPUBLICLIBRARY	400MAINST.	BRAWLEY	92227	2491	IMPERIAL	7603441891	-3	26513	9.5	590277	53816	54250	68110	9	9000	-115.533487	32.9785	163972	31	51
CA	CA0014	BUENAPARKLIBRARYDISTRICT	7150LAPALMAAVE.	BUENAPARK	90620	2547	ORANGE	7148264100	www.buenaparklibrary.org/	82768	26	2230712	102416	289244	513223	16	25237	-118.008798	33.84655	3010759	21	40
CA	CA0015	BURBANKPUBLICLIBRARY	110N.GLENOAKSBLVD.	BURBANK	91502	1203	LOSANGELES	8182385551	www.BurbankLibrary.com	108029	68.7	6604715	415295	1076046	1342108	65	292995	-118.30641	34.18334	9862049	12	29
CA	CA0016	BURLINGAMEPUBLICLIBRARY	480PRIMROSERD.	BURLINGAME	94010	4083	SANMATEO	6505587474	www.burlingame.org/library	36382	35.48	3938393	231198	447162	637214	28	101387	-122.34968	37.57926	712690	21	12
CA	CA0017	BUTTECOUNTYLIBRARY	1820MITCHELLAVENUE	OROVILLE	95966	5387	BUTTE	5305387525	buttecounty.net/bclibrary/	220407	35.25	3094988	286438	723460	826821	48	107828	-121.552892	39.50602	220337	32	4
CA	CA0018	CALAVERASCOUNTYLIBRARY	1299GOLDHUNTERROAD	SANANDREAS	95249	9709	CALAVERAS	2097546510	calaveraslibrary.com	46127	10.55	643256	89704	74000	136744	22	25594	-120.659581	38.19481	46843	42	3
CA	CA0019	CAMARENAMEMORIALPUBLICLIBRARY	850ENCINASAVE.	CALEXICO	92231	9998	IMPERIAL	7607682170	calexicolibrary.org	38733	12.25	877477	68750	101496	106455	19	80729	-115.48833	32.67548	163972	31	51
CA	CA0020	CARLSBADCITYLIBRARY	1775DOVELANE	CARLSBAD	92011	4048	SANDIEGO	7606022011	www.carlsbadlibrary.org	103811	107.25	10106673	297997	662524	1291611	63	157713	-117.269812	33.10641	3001072	13	50
CA	CA0021	HARRISONMEMORIALLIBRARY	OCEAN&LINCOLNAVE.	CARMEL	93921	800	MONTEREY	8316241366	hm-lib.org	4049	12.17	1093703	81578	87236	101591	12	12325	-121.923536	36.5551	408238	22	17
CA	CA0022	CERRITOSPUBLICLIBRARY	18025BLOOMFIELDAVE.	CERRITOS	90703	8525	LOSANGELES	5629161350	www.ci.cerritos.ca.us/library	54870	63	5680449	226960	1042445	841132	155	341606	-118.063829	33.86552	9862049	13	39
CA	CA0023	CHULAVISTAPUBLICLIBRARY	365FST.	CHULAVISTA	91910	2697	SANDIEGO	6196915069	M	231305	56.75	7105468	464278	1296245	1265720	108	65838	-117.082907	32.64053	3001072	21	51
CA	CA0024	COALINGA-HURONUNIFIEDSCHOOLDISTRICTLIBR	305N.FOURTHST.	COALINGA	93210	2896	FRESNO	5599351676	-3	29681	9	1077233	83402	65449	51742	10	22655	-120.360453	36.14156	909153	32	20
CA	CA0025	COLTONPUBLICLIBRARY	656N.NINTHST.	COLTON	92324	2807	SANBERNARDINO	9093705083	M	51918	10	1481922	69043	116732	133629	19	50492	-117.321741	34.07159	2015355	13	43
CA	CA0026	COLUSACOUNTYFREELIBRARY	738MARKETST.	COLUSA	95932	2327	COLUSA	5304587671	-3	21910	6.78	641880	95629	32191	40210	29	14040	-122.011234	39.21482	21204	42	2
CA	CA0027	CITYOFCOMMERCEPUBLICLIBRARY	5655JILLSONST.	COMMERCE	90040	1485	LOSANGELES	3237226660	www.cocpl.org	13536	43.44	3138958	113732	350906	294827	47	50000	-118.156705	34.00025	9862049	21	34
CA	CA0028	CONTRACOSTACOUNTYLIBRARY	1750OAKPARKBOULEVARD	PLEASANTHILL	94523	4497	CONTRACOSTA	9256466423	ccclib.org	948097	193.2	26374959	1295780	3742311	6132207	339	695409	-122.06921	37.93367	1029703	21	10
CA	CA0029	CORONAPUBLICLIBRARY	650SOUTHMAINST.	CORONA	92882	3417	RIVERSIDE	9517362381	www.coronapubliclibrary.org/	147428	68.17	3249960	153524	541935	579224	16	49663	-117.567469	33.87493	2100516	21	44
CA	CA0030	COVINAPUBLICLIBRARY	234N.SECONDAVE.	COVINA	91723	2198	LOSANGELES	6268587297	www.ci.covina.ca.us/library/	49552	14.51	1342950	96213	286662	164367	37	22444	-117.887885	34.08783	9862049	21	32
CA	CA0031	DALYCITYPUBLICLIBRARY	40WEMBLEYDR.	DALYCITY	94015	4399	SANMATEO	6509918025	dalycitylibrary.org	106361	32.8	3410028	185435	566373	633025	52	185103	-122.470188	37.6625	712690	21	12
CA	CA0032	DELNORTECOUNTYLIBRARYDISTRICT	190PRICEMALL	CRESCENTCITY	95531	4395	DELNORTE	7074649793	www.delnortecountylibrary.org	29419	5	223984	50749	101110	58907	8	9271	-124.197687	41.75128	29100	33	1
CA	CA0033	DIXONPUBLICLIBRARYDISTRICT	230N.FIRSTST.	DIXON	95620	3028	SOLANO	7076785447	www.dixonlibrary.com	25809	11.18	1143488	56518	86838	75892	14	20531	-121.822467	38.44689	407515	31	10
CA	CA0034	DOWNEYCITYLIBRARY	11121BROOKSHIREAVE.	DOWNEY	90241	3860	LOSANGELES	5629047360	www.downeylibrary.org	113379	29.4	2784518	125397	397002	425142	18	52598	-118.129772	33.93805	9862049	21	34
CA	CA0035	ELCENTROPUBLICLIBRARY	539STATEST.	ELCENTRO	92243	2973	IMPERIAL	7603374565	www.cityofelcentro.org/library/	43316	8	585456	113492	105556	77480	21	21435	-115.555631	32.79178	163972	13	51
CA	CA0036	ELDORADOCOUNTYLIBRARY	345FAIRLANE	PLACERVILLE	95667	5699	ELDORADO	5306215540	www.eldoradolibrary.org/	179722	34.95	3149597	351323	373562	744790	39	70802	-120.826883	38.72852	176075	32	4
CA	CA0037	ELSEGUNDOPUBLICLIBRARY	111W.MARIPOSAAVE.	ELSEGUNDO	90245	2299	LOSANGELES	3105242722	eslib.org	17002	28	2056160	165906	251671	240705	78	11880	-118.416643	33.92362	9862049	21	36
CA	CA0038	ESCONDIDOPUBLICLIBRARY	239S.KALMIAST.	ESCONDIDO	92025	4224	SANDIEGO	7608394601	ci.escondido.ca.us/library/	143389	70.5	4453761	225242	909584	791270	58	145093	-117.07909	33.12088	3001072	21	50
CA	CA0039	HUMBOLDTCOUNTYLIBRARY	1313THIRDST.	EUREKA	95501	553	HUMBOLDT	7072691900	humlib.org	132821	31.69	2961920	291784	275000	644080	46	20385	-124.157599	40.80483	129000	33	1
CA	CA0040	FRESNOCOUNTYPUBLICLIBRARY	2420MARIPOSAST.	FRESNO	93721	2285	FRESNO	5594883185	www.fresnolibrary.org	901417	321.18	24425239	2406835	2824393	3222473	290	974746	-119.786833	36.73797	909153	11	20
CA	CA0041	FULLERTONPUBLICLIBRARY	353W.COMMONWEALTHAVE.	FULLERTON	92832	1796	ORANGE	7147386380	www.fullertonlibrary.org	137437	40	3977680	281462	550574	921080	37	132278	-117.930943	33.87036	3010759	12	40
CA	CA0042	GLENDALEPUBLICLIBRARY	222E.HARVARDST.	GLENDALE	91205	1075	LOSANGELES	8185482030	glendalepubliclibrary.org	207157	102	8879776	658678	1137968	1185385	114	256771	-118.253485	34.14441	9862049	12	29
CA	CA0043	GLENDORALIBRARY&CULTURALCENTER	140SOUTHGLENDORAAVE.	GLENDORA	91741	3499	LOSANGELES	6268524891	www.glendoralibrary.org	52362	29.2	2375391	121108	262664	373908	15	37272	-117.865464	34.13519	9862049	21	26
CA	CA0044	HAYWARDPUBLICLIBRARY	835CST.	HAYWARD	94541	5120	ALAMEDA	5108817954	www.library.hayward-ca.gov	149205	37.1	3486725	124267	628883	874685	55	131921	-122.083624	37.67066	1474368	12	13
CA	CA0045	HEMETPUBLICLIBRARY	300E.LATHAMAVE	HEMET	92543	4222	RIVERSIDE	9517652440	www.hemetpubliclibrary.org	74185	15.97	2705392	82018	416500	487152	38	87423	-116.969399	33.74941	2100516	13	45
CA	CA0046	HUNTINGTONBEACHLIBRARY	7111TALBERTAVE.	HUNTINGTONBEACH	92648	1232	ORANGE	7149608836	www.hbpl.org	201993	37.25	5735525	406418	820232	879225	77	101250	-118.004341	33.70114	3010759	21	46
CA	CA0047	IMPERIALCOUNTYLIBRARY	1331S.CLARK,BLDG24	ELCENTRO	92243	9516	IMPERIAL	7603396460	M	54844	9.5	286488	45630	47671	36448	27	24468	-115.560478	32.75129	163972	23	51
CA	CA0048	IMPERIALPUBLICLIBRARY	200W.NINTHST.	IMPERIAL	92251	1213	IMPERIAL	7603551332	imperial.polarislibrary.com	12752	3.5	174733	32713	33696	25945	11	16249	-115.571293	32.84848	163972	23	51
CA	CA0049	INGLEWOODPUBLICLIBRARY	101W.MANCHESTERBLVD.	INGLEWOOD	90301	1771	LOSANGELES	3104125397	www.cityofinglewood.org/depts/library/default.asp	118878	46.32	3610300	458242	261545	238079	38	48518	-118.35625	33.96178	9862049	21	35
CA	CA0050	INYOCOUNTYFREELIBRARY	168N.EDWARDS	INDEPENDENCE	93526	610	INYO	7608780359	M	18152	11.67	645373	102150	131811	99447	12	22164	-118.200011	36.80313	17136	43	25
CA	CA0051	KERNCOUNTYLIBRARY	701TRUXTUNAVE.	BAKERSFIELD	93301	4816	KERN	6618680700	kerncountylibrary.org	817517	127.7	9601266	888932	1700000	1599149	235	377496	-119.00938	35.37324	800458	32	22
CA	CA0053	KINGSCOUNTYLIBRARY	401N.DOUTYST.	HANFORD	93230	3908	KINGS	5595820261	www.kingscountylibrary.org/	154434	23	1844438	175476	130191	130320	66	77562	-119.645994	36.3291	149518	23	20
CA	CA0054	LAKECOUNTYLIBRARY	1425N.HIGHST	LAKEPORT	95453	3800	LAKE	7072638816	co.lake.ca.us/library/library.html	64059	13.25	1144346	140026	264000	201072	24	27324	-122.917011	39.05144	64866	42	1
CA	CA0055	LARKSPURPUBLICLIBRARY	400MAGNOLIAAVE.	LARKSPUR	94939	2035	MARIN	4159275005	alphais.com/larkspur/208.html	12204	5.57	667447	50436	174621	122937	2	3168	-122.535667	37.93426	248794	21	6
CA	CA0057	LINCOLNPUBLICLIBRARY	485TWELVEBRIDGESDRIVE	LINCOLN	95648	8823	PLACER	9164342403	www.libraryatlincoln.org	39758	10.5	1096725	130200	89250	160205	43	25600	-121.289893	38.85122	341945	41	4
CA	CA0058	LIVERMOREPUBLICLIBRARY	1188S.LIVERMOREAVE.	LIVERMORE	94550	4813	ALAMEDA	9253735500	www.livermore.lib.ca.us/	83604	66.25	5263310	239130	666602	956872	87	160119	-121.755826	37.67398	1474368	23	10
CA	CA0059	LODIPUBLICLIBRARY	201W.LOCUSTSTREET	LODI	95240	2013	SANJOAQUIN	2093335534	www.lodi.gov/library/	63362	16.9	1752234	130526	296793	280466	20	38999	-121.275022	38.1367	672388	23	11
CA	CA0060	LOMPOCPUBLICLIBRARY	501E.NORTHAVE.	LOMPOC	93436	3404	SANTABARBARA	8058758787	www.cityoflompoc.com/library/	66252	17.29	1528891	106502	239142	299846	30	107980	-120.452509	34.6533	405396	23	24
CA	CA0061	LONGBEACHPUBLICLIBRARY	101PACIFICAVE.	LONGBEACH	90822	1097	LOSANGELES	5625706291	www.lbpl.org/	492642	186.48	15229695	927580	1691244	1695540	129	437211	-118.193815	33.76813	9862049	11	37
CA	CA0062	COUNTYOFLOSANGELESPUBLICLIBRARY	7400E.IMPERIALHIGHWAY	DOWNEY	90241	3375	LOSANGELES	5629408462	www.colapublib.org	3671064	1348	121749203	6871850	12810216	14139359	929	2664465	-118.161565	33.92874	9862049	21	34
CA	CA0063	LOSANGELESPUBLICLIBRARY	630W.FIFTHST.	LOSANGELES	90071	2097	LOSANGELES	2132287515	www.lapl.org/	4045873	1181	124031221	6219060	17943787	17234888	2269	5311507	-118.254261	34.0504	9862049	11	34
CA	CA0064	MADERACOUNTYLIBRARY	121N.GST.	MADERA	93637	3592	MADERA	5596757871	www.sjvls.org/madera	150887	29.25	1901005	281128	303222	423015	23	44122	-120.061887	36.9608	148333	13	19
CA	CA0065	MARINCOUNTYFREELIBRARY	3501CIVICCENTERDR,RM414	SANRAFAEL	94903	4189	MARIN	4154993220	www.marinlibrary.org	141860	95.74	12220000	437571	1104590	1462639	100	211768	-122.535263	38.00069	248794	21	6
CA	CA0066	MENDOCINOCOUNTYLIBRARY	105N.MAINST.	UKIAH	95482	4482	MENDOCINO	7074672590	www.co.mendocino.ca.us/library/	90163	13.85	1768681	176064	498928	430057	21	51108	-123.206679	39.15024	86221	33	1
CA	CA0067	MENLOPARKPUBLICLIBRARY	800ALMAST.	MENLOPARK	94025	3460	SANMATEO	6503302500	www.menloparklibrary.org/	31490	21.13	2101176	150377	422877	707073	26	104002	-122.178102	37.45243	712690	21	14
CA	CA0068	MERCEDCOUNTYLIBRARY	2100OST.	MERCED	95340	3637	MERCED	2093857484	www.mercedcountylibrary.org	255250	33	2657435	397689	506359	546632	91	143209	-120.485517	37.30719	246117	32	18
CA	CA0069	MILLVALLEYPUBLICLIBRARY	375THROCKMORTONAVE.	MILLVALLEY	94941	2698	MARIN	4153894292	millvalleylibrary.org	13925	18.88	1824308	120942	229409	285745	13	33666	-122.554248	37.90626	248794	21	6
CA	CA0070	MODOCCOUNTYLIBRARY	212W.THIRDST.	ALTURAS	96101	3913	MODOC	5302336340	infopeople.org/modoc/index.html	9702	6.71	346186	65980	50095	66567	15	7272	-120.543774	41.486	9184	43	4
CA	CA0071	MONOCOUNTYFREELIBRARY	400SIERRAPARKRD.	MAMMOTHLAKES	93546	1120	MONO	7609348670	www.monocolibraries.org	13759	12.5	915727	110513	133082	157289	68	57943	-118.802244	37.60019	12774	43	25
CA	CA0072	MONROVIAPUBLICLIBRARY	321S.MYRTLEAVE.	MONROVIA	91016	2848	LOSANGELES	6262568274	www.monroviapubliclibrary.org	39327	18.29	1541675	116401	219323	103809	14	15203	-118.001003	34.14888	9862049	21	26
CA	CA0073	MONTEREYCOUNTYFREELIBRARIES	188SEASIDECIRCLE	MARINA	93933	2500	MONTEREY	8318837573	www.montereycountyfreelibraries.org	228808	73	7066830	418257	949943	1231497	195	245082	-121.801944	36.6919	408238	22	17
CA	CA0074	MONTEREYPUBLICLIBRARY	625PACIFICST.	MONTEREY	93940	2866	MONTEREY	8316463932	www.monterey.org/library	29322	27.3	3050575	111261	383591	464023	12	20665	-121.897235	36.59636	408238	22	17
CA	CA0075	MONTEREYPARKBRUGGEMEYERLIBRARY	318S.RAMONAAVENUE	MONTEREYPARK	91754	3399	LOSANGELES	6263071418	ci.monterey-park.ca.us/Library	64434	31.03	1982394	174169	429825	388624	59	87520	-118.125479	34.0593	9862049	13	29
CA	CA0076	MOUNTAINVIEWPUBLICLIBRARY	585FRANKLINST.	MOUNTAINVIEW	94041	1998	SANTACLARA	6509036335	library.mountainview.gov	73932	45.5	4952356	252633	713214	1320193	49	112113	-122.084252	37.38962	1764499	13	14
CA	CA0077	NAPACITY-COUNTYLIBRARY	580COOMBSST.	NAPA	94559	3396	NAPA	7072534241	www.co.napa.ca.us/library/	130780	42.15	7150707	182610	389044	813824	58	81633	-122.284354	38.29536	133433	31	1
CA	CA0078	NATIONALCITYPUBLICLIBRARY	1401NATIONALCITYBLVD.	NATIONALCITY	91950	3314	SANDIEGO	6194705800	www.nationalcitylibrary.org	61194	58.8	3009498	194483	451620	312591	106	177768	-117.104795	32.67054	3001072	13	51
CA	CA0079	NEVADACOUNTYLIBRARY	980HELLINGWAY	NEVADACITY	95959	8619	NEVADA	5302651407	mynevadacounty.com/library/	99186	28.6	2448134	186808	371259	721048	42	48813	-121.025021	39.26959	97118	32	4
CA	CA0080	NEWPORTBEACHPUBLICLIBRARY	1000AVOCADOAVE.	NEWPORTBEACH	92660	7915	ORANGE	9497173800	www.newportbeachlibrary.org	84554	65.5	6416520	314599	1239790	1701476	100	191747	-117.873454	33.60859	3010759	13	48
CA	CA0081	OAKLANDPUBLICLIBRARY	125-14THST.	OAKLAND	94612	4310	ALAMEDA	5102383281	oaklandlibrary.org	441010	244.06	23821646	1501581	3240395	2328712	174	407920	-122.263487	37.80128	1474368	11	9
CA	CA0082	OCEANSIDEPUBLICLIBRARY	330N.COASTHIGHWAY	OCEANSIDE	92054	2824	SANDIEGO	7604355560	www.oceansidepubliclibrary.org	178806	56.59	5445964	298976	679120	516222	107	192081	-117.380443	33.19706	3001072	21	49
CA	CA0083	ONTARIOCITYLIBRARY	215EASTCSTREET	ONTARIO	91764	4198	SANBERNARDINO	9093952004	www.ci.ontario.ca.us/library	173690	48	4263509	217579	651695	596714	50	147353	-117.649363	34.06585	2015355	12	43
CA	CA0084	ORANGECOUNTYPUBLICLIBRARY	1501E.ST.ANDREWPLACE	SANTAANA	92705	4930	ORANGE	7145663000	www.ocpl.org/	1551555	387	42112694	2815791	6508405	6908477	581	841737	-117.849163	33.72301	3010759	21	47
CA	CA0085	ORANGEPUBLICLIBRARY	407ECHAPMANAVE	ORANGE	92866	1594	ORANGE	7142882471	www.cityoforange.org/library	140849	48.02	5022925	231101	387003	633082	113	107139	-117.849701	33.78788	3010759	12	40
CA	CA0086	ORLANDFREELIBRARY	333MILLST.	ORLAND	95963	1788	GLENN	5308651640	orlandfreelibrary.net	15023	5.5	386290	50283	131987	54862	5	11745	-122.193262	39.74518	28237	32	2
CA	CA0087	OXNARDPUBLICLIBRARY	251SOUTHAST.	OXNARD	93030	5750	VENTURA	8053857527	www.oxnard.org	194905	51.5	5687099	377263	565667	1624377	93	24796	-119.178575	34.20097	797740	12	23
CA	CA0088	PACIFICGROVEPUBLICLIBRARY	550CENTRALAVE.	PACIFICGROVE	93950	2789	MONTEREY	8316485760	pacificgrove.lib.ca.us	15472	7.25	1042544	103480	144900	194127	10	13177	-121.916297	36.62	408238	22	17
CA	CA0089	PALMDALECITYLIBRARY	700E.PALMDALEBLVD.	PALMDALE	93550	4742	LOSANGELES	6612675600	www.cityofpalmdale.org/library	147897	29.89	2681795	124338	312108	422429	14	37800	-118.116546	34.57943	9862049	21	25
CA	CA0090	PALMSPRINGSPUBLICLIBRARY	300S.SUNRISEWAY	PALMSPRINGS	92262	7699	RIVERSIDE	7603227323	www.palmspringslibrary.org	47251	21.35	2813565	128763	287677	413712	30	101948	-116.528184	33.81948	2100516	21	45
CA	CA0091	PALOALTOCITYLIBRARY	1213NEWELLRD	PALOALTO	94303	2999	SANTACLARA	6503292516	M	63367	57.3	6847307	241323	881520	1542116	87	149278	-122.139753	37.44508	1764499	13	14
CA	CA0092	PALOSVERDESLIBRARYDISTRICT	701SILVERSPURRD.	ROLLINGHILLSESTATE	90274	3603	LOSANGELES	3103779584	www.pvld.org	69898	57.2	6388570	207640	623923	852341	39	60324	-118.369968	33.77092	9862049	21	46
CA	CA0093	PALOVERDEVALLEYLIBRARYDISTRICT	125W.CHANSLORWAY	BLYTHE	92225	1245	RIVERSIDE	7609225371	paloverdevalleylibrary.com	42370	4	294337	45984	85276	30151	5	10767	-114.597636	33.61761	2100516	33	45
CA	CA0094	PASADENAPUBLICLIBRARY	285E.WALNUTST.	PASADENA	91101	1598	LOSANGELES	6267444066	cityofpasadena.net/library	148126	121.77	11952344	1081819	1233012	1919799	121	206685	-118.144476	34.14953	9862049	12	29
CA	CA0095	PASOROBLESPUBLICLIBRARY	1000SPRINGST.	PASOROBLES	93446	2599	SANLUISOBISPO	8052373870	www.prcity.com/library	29934	11.15	1798600	61639	179685	251612	10	27672	-120.691199	35.62469	265297	13	22
CA	CA0096	PLACENTIALIBRARYDISTRICT	411E.CHAPMANAVE.	PLACENTIA	92870	6198	ORANGE	7145281925	placentialibrary.org	55204	24	2382784	88010	630931	261417	19	46387	-117.862309	33.87111	3010759	21	40
CA	CA0097	PLUMASCOUNTYLIBRARY	445JACKSONST.	QUINCY	95971	9410	PLUMAS	5302836310	www.psln.com/PCLibQ/	24297	8.15	647627	75602	85172	76749	20	18969	-120.945764	39.935	20275	43	4
CA	CA0098	POMONAPUBLICLIBRARY	625S.GAREYAVE.	POMONA	91766	3322	LOSANGELES	9096202473	www.pomonalibrary.org	163405	37.72	3116027	411581	253030	215502	42	64060	-117.750027	34.05393	9862049	12	38
CA	CA0099	PORTERVILLEPUBLICLIBRARY	41WESTTHURMANAVENUE	PORTERVILLE	93257	3652	TULARE	5597840177	www.portervillelibrary.org	51863	12.5	888031	73541	190023	255025	31	49426	-119.017106	36.07137	426276	13	21
CA	CA0100	REDONDOBEACHPUBLICLIBRARY	303N.PACIFICCOASTHWY	REDONDOBEACH	90277	2838	LOSANGELES	3103180676	redondo.org/library	67488	31.37	3933360	204389	446346	831354	17	48979	-118.38731	33.84511	9862049	21	36
CA	CA0101	REDWOODCITYPUBLICLIBRARY	1044MIDDLEFIELDRD	REDWOODCITY	94063	1868	SANMATEO	6507807061	www.rcpl.info	77269	49.28	6446611	200074	562874	1064701	67	310000	-122.22739	37.4843	712690	13	14
CA	CA0102	RICHMONDPUBLICLIBRARY	325CIVICCENTERPLAZA	RICHMOND	94804	1659	CONTRACOSTA	5106206555	www.richmondlibrary.org	103577	50.4	6419248	199109	208962	172558	26	58064	-122.343681	37.93553	1029703	21	7
CA	CA0103	RIVERSIDEPUBLICLIBRARY	3581MISSIONINNAVE.	RIVERSIDE	92501	3377	RIVERSIDE	9518265213	www.riversideca.gov/library/	296842	101.55	10110225	481472	1257790	1142088	146	308667	-117.372308	33.98228	2100516	11	44
CA	CA0104	ROSEVILLEPUBLICLIBRARY	225TAYLORST.	ROSEVILLE	95678	2681	PLACER	9167745221	www.roseville.ca.us/library	109154	52.8	3737995	169359	505783	821987	97	106540	-121.285259	38.7463	341945	12	4
CA	CA0105	SACRAMENTOPUBLICLIBRARY	828IST.	SACRAMENTO	95814	2508	SACRAMENTO	9162642770	www.saclibrary.org	1351825	309.25	36828608	1899143	3049098	6806754	441	985755	-121.495215	38.58196	1394154	11	5
CA	CA0106	SALINASPUBLICLIBRARY	350LINCOLNAVE.	SALINAS	93901	2692	MONTEREY	8317587458	www.salinas.lib.ca.us/	150898	40.15	3978045	209405	332484	350917	51	48600	-121.656723	36.67253	408238	12	17
CA	CA0107	SANANSELMOPUBLICLIBRARY	110TUNSTEADAVE.	SANANSELMO	94960	2617	MARIN	4152584656	sananselmolibrary.org	12601	2.73	484600	48103	14000	105463	4	8136	-122.562746	37.97438	248794	21	6
CA	CA0108	SANBENITOCOUNTYFREELIBRARY	470FIFTHST.	HOLLISTER	95023	3885	SANBENITO	8316364107	www.sanbenitofl.org	55910	11	770129	84892	110984	120657	14	11075	-121.405111	36.85154	54699	32	17
CA	CA0109	SANBERNARDINOCOUNTYLIBRARY	104W.FOURTHST.	SANBERNARDINO	92415	35	SANBERNARDINO	9093875720	www.sbcounty.gov/library	1196005	259	19178269	966878	3846492	2638187	799	700112	-117.285429	34.10644	2015355	21	43
